[
  {
    "city": "Mont Saint-Michel",
    "lat": 48.6359541,
    "lon": -1.511459954959514,
    "day": 1667559600,
    "temp": 13.29
  },
  {
    "city": "Mont Saint-Michel",
    "lat": 48.6359541,
    "lon": -1.511459954959514,
    "day": 1667646000,
    "temp": 11.25
  },
  {
    "city": "Mont Saint-Michel",
    "lat": 48.6359541,
    "lon": -1.511459954959514,
    "day": 1667732400,
    "temp": 14.77
  },
  {
    "city": "Mont Saint-Michel",
    "lat": 48.6359541,
    "lon": -1.511459954959514,
    "day": 1667818800,
    "temp": 16.05
  },
  {
    "city": "Mont Saint-Michel",
    "lat": 48.6359541,
    "lon": -1.511459954959514,
    "day": 1667905200,
    "temp": 14.35
  },
  {
    "city": "Mont Saint-Michel",
    "lat": 48.6359541,
    "lon": -1.511459954959514,
    "day": 1667991600,
    "temp": 14.07
  },
  {
    "city": "Mont Saint-Michel",
    "lat": 48.6359541,
    "lon": -1.511459954959514,
    "day": 1668078000,
    "temp": 15.03
  },
  {
    "city": "Saint-Malo",
    "lat": 48.649518,
    "lon": -2.0260409,
    "day": 1667559600,
    "temp": 13.59
  },
  {
    "city": "Saint-Malo",
    "lat": 48.649518,
    "lon": -2.0260409,
    "day": 1667646000,
    "temp": 12.63
  },
  {
    "city": "Saint-Malo",
    "lat": 48.649518,
    "lon": -2.0260409,
    "day": 1667732400,
    "temp": 15.02
  },
  {
    "city": "Saint-Malo",
    "lat": 48.649518,
    "lon": -2.0260409,
    "day": 1667818800,
    "temp": 16
  },
  {
    "city": "Saint-Malo",
    "lat": 48.649518,
    "lon": -2.0260409,
    "day": 1667905200,
    "temp": 14.92
  },
  {
    "city": "Saint-Malo",
    "lat": 48.649518,
    "lon": -2.0260409,
    "day": 1667991600,
    "temp": 15.04
  },
  {
    "city": "Saint-Malo",
    "lat": 48.649518,
    "lon": -2.0260409,
    "day": 1668078000,
    "temp": 15.03
  },
  {
    "city": "Bayeux",
    "lat": 49.2764624,
    "lon": -0.7024738,
    "day": 1667559600,
    "temp": 12.45
  },
  {
    "city": "Bayeux",
    "lat": 49.2764624,
    "lon": -0.7024738,
    "day": 1667646000,
    "temp": 10.22
  },
  {
    "city": "Bayeux",
    "lat": 49.2764624,
    "lon": -0.7024738,
    "day": 1667732400,
    "temp": 14.32
  },
  {
    "city": "Bayeux",
    "lat": 49.2764624,
    "lon": -0.7024738,
    "day": 1667818800,
    "temp": 15.12
  },
  {
    "city": "Bayeux",
    "lat": 49.2764624,
    "lon": -0.7024738,
    "day": 1667905200,
    "temp": 14.14
  },
  {
    "city": "Bayeux",
    "lat": 49.2764624,
    "lon": -0.7024738,
    "day": 1667991600,
    "temp": 13.45
  },
  {
    "city": "Bayeux",
    "lat": 49.2764624,
    "lon": -0.7024738,
    "day": 1668078000,
    "temp": 14.39
  },
  {
    "city": "Le Havre",
    "lat": 49.4938975,
    "lon": 0.1079732,
    "day": 1667559600,
    "temp": 12.56
  },
  {
    "city": "Le Havre",
    "lat": 49.4938975,
    "lon": 0.1079732,
    "day": 1667646000,
    "temp": 11.75
  },
  {
    "city": "Le Havre",
    "lat": 49.4938975,
    "lon": 0.1079732,
    "day": 1667732400,
    "temp": 13.73
  },
  {
    "city": "Le Havre",
    "lat": 49.4938975,
    "lon": 0.1079732,
    "day": 1667818800,
    "temp": 14.97
  },
  {
    "city": "Le Havre",
    "lat": 49.4938975,
    "lon": 0.1079732,
    "day": 1667905200,
    "temp": 14.83
  },
  {
    "city": "Le Havre",
    "lat": 49.4938975,
    "lon": 0.1079732,
    "day": 1667991600,
    "temp": 14.15
  },
  {
    "city": "Le Havre",
    "lat": 49.4938975,
    "lon": 0.1079732,
    "day": 1668078000,
    "temp": 14.09
  },
  {
    "city": "Rouen",
    "lat": 49.4404591,
    "lon": 1.0939658,
    "day": 1667559600,
    "temp": 11.52
  },
  {
    "city": "Rouen",
    "lat": 49.4404591,
    "lon": 1.0939658,
    "day": 1667646000,
    "temp": 12.04
  },
  {
    "city": "Rouen",
    "lat": 49.4404591,
    "lon": 1.0939658,
    "day": 1667732400,
    "temp": 10.27
  },
  {
    "city": "Rouen",
    "lat": 49.4404591,
    "lon": 1.0939658,
    "day": 1667818800,
    "temp": 14.46
  },
  {
    "city": "Rouen",
    "lat": 49.4404591,
    "lon": 1.0939658,
    "day": 1667905200,
    "temp": 14.17
  },
  {
    "city": "Rouen",
    "lat": 49.4404591,
    "lon": 1.0939658,
    "day": 1667991600,
    "temp": 14
  },
  {
    "city": "Rouen",
    "lat": 49.4404591,
    "lon": 1.0939658,
    "day": 1668078000,
    "temp": 14.99
  },
  {
    "city": "Paris",
    "lat": 48.8588897,
    "lon": 2.3200410217200766,
    "day": 1667559600,
    "temp": 10.83
  },
  {
    "city": "Paris",
    "lat": 48.8588897,
    "lon": 2.3200410217200766,
    "day": 1667646000,
    "temp": 12.02
  },
  {
    "city": "Paris",
    "lat": 48.8588897,
    "lon": 2.3200410217200766,
    "day": 1667732400,
    "temp": 9.99
  },
  {
    "city": "Paris",
    "lat": 48.8588897,
    "lon": 2.3200410217200766,
    "day": 1667818800,
    "temp": 14.49
  },
  {
    "city": "Paris",
    "lat": 48.8588897,
    "lon": 2.3200410217200766,
    "day": 1667905200,
    "temp": 15.73
  },
  {
    "city": "Paris",
    "lat": 48.8588897,
    "lon": 2.3200410217200766,
    "day": 1667991600,
    "temp": 13.98
  },
  {
    "city": "Paris",
    "lat": 48.8588897,
    "lon": 2.3200410217200766,
    "day": 1668078000,
    "temp": 14.92
  },
  {
    "city": "Amiens",
    "lat": 49.8941708,
    "lon": 2.2956951,
    "day": 1667559600,
    "temp": 9.81
  },
  {
    "city": "Amiens",
    "lat": 49.8941708,
    "lon": 2.2956951,
    "day": 1667646000,
    "temp": 11.6
  },
  {
    "city": "Amiens",
    "lat": 49.8941708,
    "lon": 2.2956951,
    "day": 1667732400,
    "temp": 9.35
  },
  {
    "city": "Amiens",
    "lat": 49.8941708,
    "lon": 2.2956951,
    "day": 1667818800,
    "temp": 14.41
  },
  {
    "city": "Amiens",
    "lat": 49.8941708,
    "lon": 2.2956951,
    "day": 1667905200,
    "temp": 14.32
  },
  {
    "city": "Amiens",
    "lat": 49.8941708,
    "lon": 2.2956951,
    "day": 1667991600,
    "temp": 14.26
  },
  {
    "city": "Amiens",
    "lat": 49.8941708,
    "lon": 2.2956951,
    "day": 1668078000,
    "temp": 14.96
  },
  {
    "city": "Lille",
    "lat": 50.6365654,
    "lon": 3.0635282,
    "day": 1667559600,
    "temp": 10.29
  },
  {
    "city": "Lille",
    "lat": 50.6365654,
    "lon": 3.0635282,
    "day": 1667646000,
    "temp": 11.38
  },
  {
    "city": "Lille",
    "lat": 50.6365654,
    "lon": 3.0635282,
    "day": 1667732400,
    "temp": 9.91
  },
  {
    "city": "Lille",
    "lat": 50.6365654,
    "lon": 3.0635282,
    "day": 1667818800,
    "temp": 13.3
  },
  {
    "city": "Lille",
    "lat": 50.6365654,
    "lon": 3.0635282,
    "day": 1667905200,
    "temp": 13.58
  },
  {
    "city": "Lille",
    "lat": 50.6365654,
    "lon": 3.0635282,
    "day": 1667991600,
    "temp": 13.08
  },
  {
    "city": "Lille",
    "lat": 50.6365654,
    "lon": 3.0635282,
    "day": 1668078000,
    "temp": 14.21
  },
  {
    "city": "Strasbourg",
    "lat": 48.584614,
    "lon": 7.7507127,
    "day": 1667559600,
    "temp": 10.49
  },
  {
    "city": "Strasbourg",
    "lat": 48.584614,
    "lon": 7.7507127,
    "day": 1667646000,
    "temp": 11.21
  },
  {
    "city": "Strasbourg",
    "lat": 48.584614,
    "lon": 7.7507127,
    "day": 1667732400,
    "temp": 9.55
  },
  {
    "city": "Strasbourg",
    "lat": 48.584614,
    "lon": 7.7507127,
    "day": 1667818800,
    "temp": 14.07
  },
  {
    "city": "Strasbourg",
    "lat": 48.584614,
    "lon": 7.7507127,
    "day": 1667905200,
    "temp": 13.25
  },
  {
    "city": "Strasbourg",
    "lat": 48.584614,
    "lon": 7.7507127,
    "day": 1667991600,
    "temp": 15.36
  },
  {
    "city": "Strasbourg",
    "lat": 48.584614,
    "lon": 7.7507127,
    "day": 1668078000,
    "temp": 14.38
  },
  {
    "city": "Ch\\u00e2teau du Haut-K\\u0153nigsbourg",
    "lat": 48.249489800000006,
    "lon": 7.34429620253195,
    "day": 1667559600,
    "temp": 7.53
  },
  {
    "city": "Ch\\u00e2teau du Haut-K\\u0153nigsbourg",
    "lat": 48.249489800000006,
    "lon": 7.34429620253195,
    "day": 1667646000,
    "temp": 8.1
  },
  {
    "city": "Ch\\u00e2teau du Haut-K\\u0153nigsbourg",
    "lat": 48.249489800000006,
    "lon": 7.34429620253195,
    "day": 1667732400,
    "temp": 7.01
  },
  {
    "city": "Ch\\u00e2teau du Haut-K\\u0153nigsbourg",
    "lat": 48.249489800000006,
    "lon": 7.34429620253195,
    "day": 1667818800,
    "temp": 11.52
  },
  {
    "city": "Ch\\u00e2teau du Haut-K\\u0153nigsbourg",
    "lat": 48.249489800000006,
    "lon": 7.34429620253195,
    "day": 1667905200,
    "temp": 11.98
  },
  {
    "city": "Ch\\u00e2teau du Haut-K\\u0153nigsbourg",
    "lat": 48.249489800000006,
    "lon": 7.34429620253195,
    "day": 1667991600,
    "temp": 12.29
  },
  {
    "city": "Ch\\u00e2teau du Haut-K\\u0153nigsbourg",
    "lat": 48.249489800000006,
    "lon": 7.34429620253195,
    "day": 1668078000,
    "temp": 10.42
  },
  {
    "city": "Colmar",
    "lat": 48.0777517,
    "lon": 7.3579641,
    "day": 1667559600,
    "temp": 11.17
  },
  {
    "city": "Colmar",
    "lat": 48.0777517,
    "lon": 7.3579641,
    "day": 1667646000,
    "temp": 11.56
  },
  {
    "city": "Colmar",
    "lat": 48.0777517,
    "lon": 7.3579641,
    "day": 1667732400,
    "temp": 9.68
  },
  {
    "city": "Colmar",
    "lat": 48.0777517,
    "lon": 7.3579641,
    "day": 1667818800,
    "temp": 14.52
  },
  {
    "city": "Colmar",
    "lat": 48.0777517,
    "lon": 7.3579641,
    "day": 1667905200,
    "temp": 14.1
  },
  {
    "city": "Colmar",
    "lat": 48.0777517,
    "lon": 7.3579641,
    "day": 1667991600,
    "temp": 13.9
  },
  {
    "city": "Colmar",
    "lat": 48.0777517,
    "lon": 7.3579641,
    "day": 1668078000,
    "temp": 14.44
  },
  {
    "city": "Eguisheim",
    "lat": 48.0447968,
    "lon": 7.3079618,
    "day": 1667559600,
    "temp": 11.16
  },
  {
    "city": "Eguisheim",
    "lat": 48.0447968,
    "lon": 7.3079618,
    "day": 1667646000,
    "temp": 11.64
  },
  {
    "city": "Eguisheim",
    "lat": 48.0447968,
    "lon": 7.3079618,
    "day": 1667732400,
    "temp": 9.62
  },
  {
    "city": "Eguisheim",
    "lat": 48.0447968,
    "lon": 7.3079618,
    "day": 1667818800,
    "temp": 14.59
  },
  {
    "city": "Eguisheim",
    "lat": 48.0447968,
    "lon": 7.3079618,
    "day": 1667905200,
    "temp": 15.81
  },
  {
    "city": "Eguisheim",
    "lat": 48.0447968,
    "lon": 7.3079618,
    "day": 1667991600,
    "temp": 13.06
  },
  {
    "city": "Eguisheim",
    "lat": 48.0447968,
    "lon": 7.3079618,
    "day": 1668078000,
    "temp": 14.53
  },
  {
    "city": "Besan\\u00e7on",
    "lat": 47.2380222,
    "lon": 6.0243622,
    "day": 1667559600,
    "temp": 9.04
  },
  {
    "city": "Besan\\u00e7on",
    "lat": 47.2380222,
    "lon": 6.0243622,
    "day": 1667646000,
    "temp": 9.31
  },
  {
    "city": "Besan\\u00e7on",
    "lat": 47.2380222,
    "lon": 6.0243622,
    "day": 1667732400,
    "temp": 10.21
  },
  {
    "city": "Besan\\u00e7on",
    "lat": 47.2380222,
    "lon": 6.0243622,
    "day": 1667818800,
    "temp": 13.94
  },
  {
    "city": "Besan\\u00e7on",
    "lat": 47.2380222,
    "lon": 6.0243622,
    "day": 1667905200,
    "temp": 15.26
  },
  {
    "city": "Besan\\u00e7on",
    "lat": 47.2380222,
    "lon": 6.0243622,
    "day": 1667991600,
    "temp": 12.46
  },
  {
    "city": "Besan\\u00e7on",
    "lat": 47.2380222,
    "lon": 6.0243622,
    "day": 1668078000,
    "temp": 11.65
  },
  {
    "city": "Dijon",
    "lat": 47.3215806,
    "lon": 5.0414701,
    "day": 1667559600,
    "temp": 8.1
  },
  {
    "city": "Dijon",
    "lat": 47.3215806,
    "lon": 5.0414701,
    "day": 1667646000,
    "temp": 10.5
  },
  {
    "city": "Dijon",
    "lat": 47.3215806,
    "lon": 5.0414701,
    "day": 1667732400,
    "temp": 9.15
  },
  {
    "city": "Dijon",
    "lat": 47.3215806,
    "lon": 5.0414701,
    "day": 1667818800,
    "temp": 14.13
  },
  {
    "city": "Dijon",
    "lat": 47.3215806,
    "lon": 5.0414701,
    "day": 1667905200,
    "temp": 12.95
  },
  {
    "city": "Dijon",
    "lat": 47.3215806,
    "lon": 5.0414701,
    "day": 1667991600,
    "temp": 12.11
  },
  {
    "city": "Dijon",
    "lat": 47.3215806,
    "lon": 5.0414701,
    "day": 1668078000,
    "temp": 12.55
  },
  {
    "city": "Annecy",
    "lat": 45.8992348,
    "lon": 6.1288847,
    "day": 1667559600,
    "temp": 8.89
  },
  {
    "city": "Annecy",
    "lat": 45.8992348,
    "lon": 6.1288847,
    "day": 1667646000,
    "temp": 8.55
  },
  {
    "city": "Annecy",
    "lat": 45.8992348,
    "lon": 6.1288847,
    "day": 1667732400,
    "temp": 11.45
  },
  {
    "city": "Annecy",
    "lat": 45.8992348,
    "lon": 6.1288847,
    "day": 1667818800,
    "temp": 14.53
  },
  {
    "city": "Annecy",
    "lat": 45.8992348,
    "lon": 6.1288847,
    "day": 1667905200,
    "temp": 16.27
  },
  {
    "city": "Annecy",
    "lat": 45.8992348,
    "lon": 6.1288847,
    "day": 1667991600,
    "temp": 11.37
  },
  {
    "city": "Annecy",
    "lat": 45.8992348,
    "lon": 6.1288847,
    "day": 1668078000,
    "temp": 13.84
  },
  {
    "city": "Grenoble",
    "lat": 45.1875602,
    "lon": 5.7357819,
    "day": 1667559600,
    "temp": 11.65
  },
  {
    "city": "Grenoble",
    "lat": 45.1875602,
    "lon": 5.7357819,
    "day": 1667646000,
    "temp": 8.96
  },
  {
    "city": "Grenoble",
    "lat": 45.1875602,
    "lon": 5.7357819,
    "day": 1667732400,
    "temp": 16.24
  },
  {
    "city": "Grenoble",
    "lat": 45.1875602,
    "lon": 5.7357819,
    "day": 1667818800,
    "temp": 17.71
  },
  {
    "city": "Grenoble",
    "lat": 45.1875602,
    "lon": 5.7357819,
    "day": 1667905200,
    "temp": 19.38
  },
  {
    "city": "Grenoble",
    "lat": 45.1875602,
    "lon": 5.7357819,
    "day": 1667991600,
    "temp": 16.46
  },
  {
    "city": "Grenoble",
    "lat": 45.1875602,
    "lon": 5.7357819,
    "day": 1668078000,
    "temp": 14.65
  },
  {
    "city": "Lyon",
    "lat": 45.7578137,
    "lon": 4.8320114,
    "day": 1667559600,
    "temp": 10.26
  },
  {
    "city": "Lyon",
    "lat": 45.7578137,
    "lon": 4.8320114,
    "day": 1667646000,
    "temp": 11.56
  },
  {
    "city": "Lyon",
    "lat": 45.7578137,
    "lon": 4.8320114,
    "day": 1667732400,
    "temp": 11.21
  },
  {
    "city": "Lyon",
    "lat": 45.7578137,
    "lon": 4.8320114,
    "day": 1667818800,
    "temp": 15.48
  },
  {
    "city": "Lyon",
    "lat": 45.7578137,
    "lon": 4.8320114,
    "day": 1667905200,
    "temp": 18.42
  },
  {
    "city": "Lyon",
    "lat": 45.7578137,
    "lon": 4.8320114,
    "day": 1667991600,
    "temp": 14.1
  },
  {
    "city": "Lyon",
    "lat": 45.7578137,
    "lon": 4.8320114,
    "day": 1668078000,
    "temp": 14.26
  },
  {
    "city": "Gorges du Verdon",
    "lat": 43.7496562,
    "lon": 6.3285616,
    "day": 1667559600,
    "temp": 10.12
  },
  {
    "city": "Gorges du Verdon",
    "lat": 43.7496562,
    "lon": 6.3285616,
    "day": 1667646000,
    "temp": 13.13
  },
  {
    "city": "Gorges du Verdon",
    "lat": 43.7496562,
    "lon": 6.3285616,
    "day": 1667732400,
    "temp": 13.6
  },
  {
    "city": "Gorges du Verdon",
    "lat": 43.7496562,
    "lon": 6.3285616,
    "day": 1667818800,
    "temp": 15.68
  },
  {
    "city": "Gorges du Verdon",
    "lat": 43.7496562,
    "lon": 6.3285616,
    "day": 1667905200,
    "temp": 14.32
  },
  {
    "city": "Gorges du Verdon",
    "lat": 43.7496562,
    "lon": 6.3285616,
    "day": 1667991600,
    "temp": 13.64
  },
  {
    "city": "Gorges du Verdon",
    "lat": 43.7496562,
    "lon": 6.3285616,
    "day": 1668078000,
    "temp": 15.94
  },
  {
    "city": "Bormes-les-Mimosas",
    "lat": 43.1506968,
    "lon": 6.3419285,
    "day": 1667559600,
    "temp": 16.54
  },
  {
    "city": "Bormes-les-Mimosas",
    "lat": 43.1506968,
    "lon": 6.3419285,
    "day": 1667646000,
    "temp": 15.53
  },
  {
    "city": "Bormes-les-Mimosas",
    "lat": 43.1506968,
    "lon": 6.3419285,
    "day": 1667732400,
    "temp": 17.9
  },
  {
    "city": "Bormes-les-Mimosas",
    "lat": 43.1506968,
    "lon": 6.3419285,
    "day": 1667818800,
    "temp": 17.67
  },
  {
    "city": "Bormes-les-Mimosas",
    "lat": 43.1506968,
    "lon": 6.3419285,
    "day": 1667905200,
    "temp": 17.52
  },
  {
    "city": "Bormes-les-Mimosas",
    "lat": 43.1506968,
    "lon": 6.3419285,
    "day": 1667991600,
    "temp": 18.06
  },
  {
    "city": "Bormes-les-Mimosas",
    "lat": 43.1506968,
    "lon": 6.3419285,
    "day": 1668078000,
    "temp": 19.91
  },
  {
    "city": "Cassis",
    "lat": 43.2140359,
    "lon": 5.5396318,
    "day": 1667559600,
    "temp": 16.35
  },
  {
    "city": "Cassis",
    "lat": 43.2140359,
    "lon": 5.5396318,
    "day": 1667646000,
    "temp": 16.11
  },
  {
    "city": "Cassis",
    "lat": 43.2140359,
    "lon": 5.5396318,
    "day": 1667732400,
    "temp": 17.72
  },
  {
    "city": "Cassis",
    "lat": 43.2140359,
    "lon": 5.5396318,
    "day": 1667818800,
    "temp": 18.53
  },
  {
    "city": "Cassis",
    "lat": 43.2140359,
    "lon": 5.5396318,
    "day": 1667905200,
    "temp": 18.67
  },
  {
    "city": "Cassis",
    "lat": 43.2140359,
    "lon": 5.5396318,
    "day": 1667991600,
    "temp": 19.74
  },
  {
    "city": "Cassis",
    "lat": 43.2140359,
    "lon": 5.5396318,
    "day": 1668078000,
    "temp": 19.88
  },
  {
    "city": "Marseille",
    "lat": 43.2961743,
    "lon": 5.3699525,
    "day": 1667559600,
    "temp": 16.24
  },
  {
    "city": "Marseille",
    "lat": 43.2961743,
    "lon": 5.3699525,
    "day": 1667646000,
    "temp": 15.56
  },
  {
    "city": "Marseille",
    "lat": 43.2961743,
    "lon": 5.3699525,
    "day": 1667732400,
    "temp": 17.54
  },
  {
    "city": "Marseille",
    "lat": 43.2961743,
    "lon": 5.3699525,
    "day": 1667818800,
    "temp": 17.69
  },
  {
    "city": "Marseille",
    "lat": 43.2961743,
    "lon": 5.3699525,
    "day": 1667905200,
    "temp": 18.77
  },
  {
    "city": "Marseille",
    "lat": 43.2961743,
    "lon": 5.3699525,
    "day": 1667991600,
    "temp": 19.81
  },
  {
    "city": "Marseille",
    "lat": 43.2961743,
    "lon": 5.3699525,
    "day": 1668078000,
    "temp": 19.32
  },
  {
    "city": "Aix-en-Provence",
    "lat": 43.5298424,
    "lon": 5.4474738,
    "day": 1667559600,
    "temp": 14.5
  },
  {
    "city": "Aix-en-Provence",
    "lat": 43.5298424,
    "lon": 5.4474738,
    "day": 1667646000,
    "temp": 14.65
  },
  {
    "city": "Aix-en-Provence",
    "lat": 43.5298424,
    "lon": 5.4474738,
    "day": 1667732400,
    "temp": 16.53
  },
  {
    "city": "Aix-en-Provence",
    "lat": 43.5298424,
    "lon": 5.4474738,
    "day": 1667818800,
    "temp": 17.08
  },
  {
    "city": "Aix-en-Provence",
    "lat": 43.5298424,
    "lon": 5.4474738,
    "day": 1667905200,
    "temp": 18.57
  },
  {
    "city": "Aix-en-Provence",
    "lat": 43.5298424,
    "lon": 5.4474738,
    "day": 1667991600,
    "temp": 18.79
  },
  {
    "city": "Aix-en-Provence",
    "lat": 43.5298424,
    "lon": 5.4474738,
    "day": 1668078000,
    "temp": 19.26
  },
  {
    "city": "Avignon",
    "lat": 43.9492493,
    "lon": 4.8059012,
    "day": 1667559600,
    "temp": 13.99
  },
  {
    "city": "Avignon",
    "lat": 43.9492493,
    "lon": 4.8059012,
    "day": 1667646000,
    "temp": 14
  },
  {
    "city": "Avignon",
    "lat": 43.9492493,
    "lon": 4.8059012,
    "day": 1667732400,
    "temp": 15.01
  },
  {
    "city": "Avignon",
    "lat": 43.9492493,
    "lon": 4.8059012,
    "day": 1667818800,
    "temp": 17.35
  },
  {
    "city": "Avignon",
    "lat": 43.9492493,
    "lon": 4.8059012,
    "day": 1667905200,
    "temp": 19.07
  },
  {
    "city": "Avignon",
    "lat": 43.9492493,
    "lon": 4.8059012,
    "day": 1667991600,
    "temp": 19.77
  },
  {
    "city": "Avignon",
    "lat": 43.9492493,
    "lon": 4.8059012,
    "day": 1668078000,
    "temp": 17.82
  },
  {
    "city": "Uz\\u00e8s",
    "lat": 44.0121279,
    "lon": 4.4196718,
    "day": 1667559600,
    "temp": 13.25
  },
  {
    "city": "Uz\\u00e8s",
    "lat": 44.0121279,
    "lon": 4.4196718,
    "day": 1667646000,
    "temp": 14.33
  },
  {
    "city": "Uz\\u00e8s",
    "lat": 44.0121279,
    "lon": 4.4196718,
    "day": 1667732400,
    "temp": 14.04
  },
  {
    "city": "Uz\\u00e8s",
    "lat": 44.0121279,
    "lon": 4.4196718,
    "day": 1667818800,
    "temp": 17.46
  },
  {
    "city": "Uz\\u00e8s",
    "lat": 44.0121279,
    "lon": 4.4196718,
    "day": 1667905200,
    "temp": 16.81
  },
  {
    "city": "Uz\\u00e8s",
    "lat": 44.0121279,
    "lon": 4.4196718,
    "day": 1667991600,
    "temp": 17.27
  },
  {
    "city": "Uz\\u00e8s",
    "lat": 44.0121279,
    "lon": 4.4196718,
    "day": 1668078000,
    "temp": 17.43
  },
  {
    "city": "N\\u00eemes",
    "lat": 43.8374249,
    "lon": 4.3600687,
    "day": 1667559600,
    "temp": 14.43
  },
  {
    "city": "N\\u00eemes",
    "lat": 43.8374249,
    "lon": 4.3600687,
    "day": 1667646000,
    "temp": 15.19
  },
  {
    "city": "N\\u00eemes",
    "lat": 43.8374249,
    "lon": 4.3600687,
    "day": 1667732400,
    "temp": 14.63
  },
  {
    "city": "N\\u00eemes",
    "lat": 43.8374249,
    "lon": 4.3600687,
    "day": 1667818800,
    "temp": 17.84
  },
  {
    "city": "N\\u00eemes",
    "lat": 43.8374249,
    "lon": 4.3600687,
    "day": 1667905200,
    "temp": 17.67
  },
  {
    "city": "N\\u00eemes",
    "lat": 43.8374249,
    "lon": 4.3600687,
    "day": 1667991600,
    "temp": 18.47
  },
  {
    "city": "N\\u00eemes",
    "lat": 43.8374249,
    "lon": 4.3600687,
    "day": 1668078000,
    "temp": 18.4
  },
  {
    "city": "Aigues-Mortes",
    "lat": 43.5658225,
    "lon": 4.1912837,
    "day": 1667559600,
    "temp": 14.49
  },
  {
    "city": "Aigues-Mortes",
    "lat": 43.5658225,
    "lon": 4.1912837,
    "day": 1667646000,
    "temp": 15.96
  },
  {
    "city": "Aigues-Mortes",
    "lat": 43.5658225,
    "lon": 4.1912837,
    "day": 1667732400,
    "temp": 14.84
  },
  {
    "city": "Aigues-Mortes",
    "lat": 43.5658225,
    "lon": 4.1912837,
    "day": 1667818800,
    "temp": 17.44
  },
  {
    "city": "Aigues-Mortes",
    "lat": 43.5658225,
    "lon": 4.1912837,
    "day": 1667905200,
    "temp": 19.96
  },
  {
    "city": "Aigues-Mortes",
    "lat": 43.5658225,
    "lon": 4.1912837,
    "day": 1667991600,
    "temp": 19.07
  },
  {
    "city": "Aigues-Mortes",
    "lat": 43.5658225,
    "lon": 4.1912837,
    "day": 1668078000,
    "temp": 18.6
  },
  {
    "city": "Saintes-Maries-de-la-Mer",
    "lat": 43.4522771,
    "lon": 4.4287172,
    "day": 1667559600,
    "temp": 15.02
  },
  {
    "city": "Saintes-Maries-de-la-Mer",
    "lat": 43.4522771,
    "lon": 4.4287172,
    "day": 1667646000,
    "temp": 15.68
  },
  {
    "city": "Saintes-Maries-de-la-Mer",
    "lat": 43.4522771,
    "lon": 4.4287172,
    "day": 1667732400,
    "temp": 14.41
  },
  {
    "city": "Saintes-Maries-de-la-Mer",
    "lat": 43.4522771,
    "lon": 4.4287172,
    "day": 1667818800,
    "temp": 17.38
  },
  {
    "city": "Saintes-Maries-de-la-Mer",
    "lat": 43.4522771,
    "lon": 4.4287172,
    "day": 1667905200,
    "temp": 19.56
  },
  {
    "city": "Saintes-Maries-de-la-Mer",
    "lat": 43.4522771,
    "lon": 4.4287172,
    "day": 1667991600,
    "temp": 19.51
  },
  {
    "city": "Saintes-Maries-de-la-Mer",
    "lat": 43.4522771,
    "lon": 4.4287172,
    "day": 1668078000,
    "temp": 18.6
  },
  {
    "city": "Collioure",
    "lat": 42.52505,
    "lon": 3.0831554,
    "day": 1667559600,
    "temp": 14.34
  },
  {
    "city": "Collioure",
    "lat": 42.52505,
    "lon": 3.0831554,
    "day": 1667646000,
    "temp": 16.71
  },
  {
    "city": "Collioure",
    "lat": 42.52505,
    "lon": 3.0831554,
    "day": 1667732400,
    "temp": 16.81
  },
  {
    "city": "Collioure",
    "lat": 42.52505,
    "lon": 3.0831554,
    "day": 1667818800,
    "temp": 18.33
  },
  {
    "city": "Collioure",
    "lat": 42.52505,
    "lon": 3.0831554,
    "day": 1667905200,
    "temp": 19.5
  },
  {
    "city": "Collioure",
    "lat": 42.52505,
    "lon": 3.0831554,
    "day": 1667991600,
    "temp": 18.77
  },
  {
    "city": "Collioure",
    "lat": 42.52505,
    "lon": 3.0831554,
    "day": 1668078000,
    "temp": 19.76
  },
  {
    "city": "Carcassonne",
    "lat": 43.2130358,
    "lon": 2.3491069,
    "day": 1667559600,
    "temp": 12.09
  },
  {
    "city": "Carcassonne",
    "lat": 43.2130358,
    "lon": 2.3491069,
    "day": 1667646000,
    "temp": 13.83
  },
  {
    "city": "Carcassonne",
    "lat": 43.2130358,
    "lon": 2.3491069,
    "day": 1667732400,
    "temp": 15.55
  },
  {
    "city": "Carcassonne",
    "lat": 43.2130358,
    "lon": 2.3491069,
    "day": 1667818800,
    "temp": 17.95
  },
  {
    "city": "Carcassonne",
    "lat": 43.2130358,
    "lon": 2.3491069,
    "day": 1667905200,
    "temp": 19.21
  },
  {
    "city": "Carcassonne",
    "lat": 43.2130358,
    "lon": 2.3491069,
    "day": 1667991600,
    "temp": 19.05
  },
  {
    "city": "Carcassonne",
    "lat": 43.2130358,
    "lon": 2.3491069,
    "day": 1668078000,
    "temp": 17.75
  },
  {
    "city": "Ari\\u00e8ge",
    "lat": 42.9455368,
    "lon": 1.4065544156065486,
    "day": 1667559600,
    "temp": 3.69
  },
  {
    "city": "Ari\\u00e8ge",
    "lat": 42.9455368,
    "lon": 1.4065544156065486,
    "day": 1667646000,
    "temp": 7.23
  },
  {
    "city": "Ari\\u00e8ge",
    "lat": 42.9455368,
    "lon": 1.4065544156065486,
    "day": 1667732400,
    "temp": 13.36
  },
  {
    "city": "Ari\\u00e8ge",
    "lat": 42.9455368,
    "lon": 1.4065544156065486,
    "day": 1667818800,
    "temp": 14.11
  },
  {
    "city": "Ari\\u00e8ge",
    "lat": 42.9455368,
    "lon": 1.4065544156065486,
    "day": 1667905200,
    "temp": 14.41
  },
  {
    "city": "Ari\\u00e8ge",
    "lat": 42.9455368,
    "lon": 1.4065544156065486,
    "day": 1667991600,
    "temp": 11.48
  },
  {
    "city": "Ari\\u00e8ge",
    "lat": 42.9455368,
    "lon": 1.4065544156065486,
    "day": 1668078000,
    "temp": 11.21
  },
  {
    "city": "Toulouse",
    "lat": 43.6044622,
    "lon": 1.4442469,
    "day": 1667559600,
    "temp": 14.18
  },
  {
    "city": "Toulouse",
    "lat": 43.6044622,
    "lon": 1.4442469,
    "day": 1667646000,
    "temp": 13.41
  },
  {
    "city": "Toulouse",
    "lat": 43.6044622,
    "lon": 1.4442469,
    "day": 1667732400,
    "temp": 15.33
  },
  {
    "city": "Toulouse",
    "lat": 43.6044622,
    "lon": 1.4442469,
    "day": 1667818800,
    "temp": 17.01
  },
  {
    "city": "Toulouse",
    "lat": 43.6044622,
    "lon": 1.4442469,
    "day": 1667905200,
    "temp": 18.13
  },
  {
    "city": "Toulouse",
    "lat": 43.6044622,
    "lon": 1.4442469,
    "day": 1667991600,
    "temp": 16.28
  },
  {
    "city": "Toulouse",
    "lat": 43.6044622,
    "lon": 1.4442469,
    "day": 1668078000,
    "temp": 16.3
  },
  {
    "city": "Montauban",
    "lat": 44.0175835,
    "lon": 1.3549991,
    "day": 1667559600,
    "temp": 14.73
  },
  {
    "city": "Montauban",
    "lat": 44.0175835,
    "lon": 1.3549991,
    "day": 1667646000,
    "temp": 12.88
  },
  {
    "city": "Montauban",
    "lat": 44.0175835,
    "lon": 1.3549991,
    "day": 1667732400,
    "temp": 14.66
  },
  {
    "city": "Montauban",
    "lat": 44.0175835,
    "lon": 1.3549991,
    "day": 1667818800,
    "temp": 16.77
  },
  {
    "city": "Montauban",
    "lat": 44.0175835,
    "lon": 1.3549991,
    "day": 1667905200,
    "temp": 19.79
  },
  {
    "city": "Montauban",
    "lat": 44.0175835,
    "lon": 1.3549991,
    "day": 1667991600,
    "temp": 15.42
  },
  {
    "city": "Montauban",
    "lat": 44.0175835,
    "lon": 1.3549991,
    "day": 1668078000,
    "temp": 16.32
  },
  {
    "city": "Biarritz",
    "lat": 43.471143749999996,
    "lon": -1.552726590666314,
    "day": 1667559600,
    "temp": 14.61
  },
  {
    "city": "Biarritz",
    "lat": 43.471143749999996,
    "lon": -1.552726590666314,
    "day": 1667646000,
    "temp": 14.94
  },
  {
    "city": "Biarritz",
    "lat": 43.471143749999996,
    "lon": -1.552726590666314,
    "day": 1667732400,
    "temp": 16.55
  },
  {
    "city": "Biarritz",
    "lat": 43.471143749999996,
    "lon": -1.552726590666314,
    "day": 1667818800,
    "temp": 18.37
  },
  {
    "city": "Biarritz",
    "lat": 43.471143749999996,
    "lon": -1.552726590666314,
    "day": 1667905200,
    "temp": 18.02
  },
  {
    "city": "Biarritz",
    "lat": 43.471143749999996,
    "lon": -1.552726590666314,
    "day": 1667991600,
    "temp": 16.38
  },
  {
    "city": "Biarritz",
    "lat": 43.471143749999996,
    "lon": -1.552726590666314,
    "day": 1668078000,
    "temp": 15.55
  },
  {
    "city": "Bayonne",
    "lat": 43.4945144,
    "lon": -1.4736657,
    "day": 1667559600,
    "temp": 15.03
  },
  {
    "city": "Bayonne",
    "lat": 43.4945144,
    "lon": -1.4736657,
    "day": 1667646000,
    "temp": 15.64
  },
  {
    "city": "Bayonne",
    "lat": 43.4945144,
    "lon": -1.4736657,
    "day": 1667732400,
    "temp": 16.94
  },
  {
    "city": "Bayonne",
    "lat": 43.4945144,
    "lon": -1.4736657,
    "day": 1667818800,
    "temp": 19.15
  },
  {
    "city": "Bayonne",
    "lat": 43.4945144,
    "lon": -1.4736657,
    "day": 1667905200,
    "temp": 19.3
  },
  {
    "city": "Bayonne",
    "lat": 43.4945144,
    "lon": -1.4736657,
    "day": 1667991600,
    "temp": 16.66
  },
  {
    "city": "Bayonne",
    "lat": 43.4945144,
    "lon": -1.4736657,
    "day": 1668078000,
    "temp": 16.04
  },
  {
    "city": "La Rochelle",
    "lat": 46.1591126,
    "lon": -1.1520434,
    "day": 1667559600,
    "temp": 14.08
  },
  {
    "city": "La Rochelle",
    "lat": 46.1591126,
    "lon": -1.1520434,
    "day": 1667646000,
    "temp": 14.92
  },
  {
    "city": "La Rochelle",
    "lat": 46.1591126,
    "lon": -1.1520434,
    "day": 1667732400,
    "temp": 16.3
  },
  {
    "city": "La Rochelle",
    "lat": 46.1591126,
    "lon": -1.1520434,
    "day": 1667818800,
    "temp": 16.71
  },
  {
    "city": "La Rochelle",
    "lat": 46.1591126,
    "lon": -1.1520434,
    "day": 1667905200,
    "temp": 15.97
  },
  {
    "city": "La Rochelle",
    "lat": 46.1591126,
    "lon": -1.1520434,
    "day": 1667991600,
    "temp": 15.48
  },
  {
    "city": "La Rochelle",
    "lat": 46.1591126,
    "lon": -1.1520434,
    "day": 1668078000,
    "temp": 16.28
  }
]