[
  {
    "city": "Mont Saint-Michel",
    "lat": 48.6359541,
    "lon": -1.511459954959514,
    "day": 1667473200,
    "temp": 13.26
  },
  {
    "city": "Mont Saint-Michel",
    "lat": 48.6359541,
    "lon": -1.511459954959514,
    "day": 1667559600,
    "temp": 13.04
  },
  {
    "city": "Mont Saint-Michel",
    "lat": 48.6359541,
    "lon": -1.511459954959514,
    "day": 1667646000,
    "temp": 12.04
  },
  {
    "city": "Mont Saint-Michel",
    "lat": 48.6359541,
    "lon": -1.511459954959514,
    "day": 1667732400,
    "temp": 15.22
  },
  {
    "city": "Mont Saint-Michel",
    "lat": 48.6359541,
    "lon": -1.511459954959514,
    "day": 1667818800,
    "temp": 16.83
  },
  {
    "city": "Mont Saint-Michel",
    "lat": 48.6359541,
    "lon": -1.511459954959514,
    "day": 1667905200,
    "temp": 15.55
  },
  {
    "city": "Mont Saint-Michel",
    "lat": 48.6359541,
    "lon": -1.511459954959514,
    "day": 1667991600,
    "temp": 14.94
  },
  {
    "city": "Saint-Malo",
    "lat": 48.649518,
    "lon": -2.0260409,
    "day": 1667473200,
    "temp": 13.39
  },
  {
    "city": "Saint-Malo",
    "lat": 48.649518,
    "lon": -2.0260409,
    "day": 1667559600,
    "temp": 13.44
  },
  {
    "city": "Saint-Malo",
    "lat": 48.649518,
    "lon": -2.0260409,
    "day": 1667646000,
    "temp": 13.64
  },
  {
    "city": "Saint-Malo",
    "lat": 48.649518,
    "lon": -2.0260409,
    "day": 1667732400,
    "temp": 15.08
  },
  {
    "city": "Saint-Malo",
    "lat": 48.649518,
    "lon": -2.0260409,
    "day": 1667818800,
    "temp": 16.45
  },
  {
    "city": "Saint-Malo",
    "lat": 48.649518,
    "lon": -2.0260409,
    "day": 1667905200,
    "temp": 15.48
  },
  {
    "city": "Saint-Malo",
    "lat": 48.649518,
    "lon": -2.0260409,
    "day": 1667991600,
    "temp": 14.45
  },
  {
    "city": "Bayeux",
    "lat": 49.2764624,
    "lon": -0.7024738,
    "day": 1667473200,
    "temp": 12.66
  },
  {
    "city": "Bayeux",
    "lat": 49.2764624,
    "lon": -0.7024738,
    "day": 1667559600,
    "temp": 12.1
  },
  {
    "city": "Bayeux",
    "lat": 49.2764624,
    "lon": -0.7024738,
    "day": 1667646000,
    "temp": 11.45
  },
  {
    "city": "Bayeux",
    "lat": 49.2764624,
    "lon": -0.7024738,
    "day": 1667732400,
    "temp": 14.89
  },
  {
    "city": "Bayeux",
    "lat": 49.2764624,
    "lon": -0.7024738,
    "day": 1667818800,
    "temp": 16.64
  },
  {
    "city": "Bayeux",
    "lat": 49.2764624,
    "lon": -0.7024738,
    "day": 1667905200,
    "temp": 15.13
  },
  {
    "city": "Bayeux",
    "lat": 49.2764624,
    "lon": -0.7024738,
    "day": 1667991600,
    "temp": 15.19
  },
  {
    "city": "Le Havre",
    "lat": 49.4938975,
    "lon": 0.1079732,
    "day": 1667473200,
    "temp": 13.39
  },
  {
    "city": "Le Havre",
    "lat": 49.4938975,
    "lon": 0.1079732,
    "day": 1667559600,
    "temp": 12.44
  },
  {
    "city": "Le Havre",
    "lat": 49.4938975,
    "lon": 0.1079732,
    "day": 1667646000,
    "temp": 12.03
  },
  {
    "city": "Le Havre",
    "lat": 49.4938975,
    "lon": 0.1079732,
    "day": 1667732400,
    "temp": 13.42
  },
  {
    "city": "Le Havre",
    "lat": 49.4938975,
    "lon": 0.1079732,
    "day": 1667818800,
    "temp": 14.46
  },
  {
    "city": "Le Havre",
    "lat": 49.4938975,
    "lon": 0.1079732,
    "day": 1667905200,
    "temp": 15.11
  },
  {
    "city": "Le Havre",
    "lat": 49.4938975,
    "lon": 0.1079732,
    "day": 1667991600,
    "temp": 14.84
  },
  {
    "city": "Rouen",
    "lat": 49.4404591,
    "lon": 1.0939658,
    "day": 1667473200,
    "temp": 13.65
  },
  {
    "city": "Rouen",
    "lat": 49.4404591,
    "lon": 1.0939658,
    "day": 1667559600,
    "temp": 11.04
  },
  {
    "city": "Rouen",
    "lat": 49.4404591,
    "lon": 1.0939658,
    "day": 1667646000,
    "temp": 11.94
  },
  {
    "city": "Rouen",
    "lat": 49.4404591,
    "lon": 1.0939658,
    "day": 1667732400,
    "temp": 10.4
  },
  {
    "city": "Rouen",
    "lat": 49.4404591,
    "lon": 1.0939658,
    "day": 1667818800,
    "temp": 14.09
  },
  {
    "city": "Rouen",
    "lat": 49.4404591,
    "lon": 1.0939658,
    "day": 1667905200,
    "temp": 15.32
  },
  {
    "city": "Rouen",
    "lat": 49.4404591,
    "lon": 1.0939658,
    "day": 1667991600,
    "temp": 15.75
  },
  {
    "city": "Paris",
    "lat": 48.8588897,
    "lon": 2.3200410217200766,
    "day": 1667473200,
    "temp": 15.95
  },
  {
    "city": "Paris",
    "lat": 48.8588897,
    "lon": 2.3200410217200766,
    "day": 1667559600,
    "temp": 10.3
  },
  {
    "city": "Paris",
    "lat": 48.8588897,
    "lon": 2.3200410217200766,
    "day": 1667646000,
    "temp": 11.71
  },
  {
    "city": "Paris",
    "lat": 48.8588897,
    "lon": 2.3200410217200766,
    "day": 1667732400,
    "temp": 10.38
  },
  {
    "city": "Paris",
    "lat": 48.8588897,
    "lon": 2.3200410217200766,
    "day": 1667818800,
    "temp": 14.87
  },
  {
    "city": "Paris",
    "lat": 48.8588897,
    "lon": 2.3200410217200766,
    "day": 1667905200,
    "temp": 15.48
  },
  {
    "city": "Paris",
    "lat": 48.8588897,
    "lon": 2.3200410217200766,
    "day": 1667991600,
    "temp": 16.15
  },
  {
    "city": "Amiens",
    "lat": 49.8941708,
    "lon": 2.2956951,
    "day": 1667473200,
    "temp": 14.35
  },
  {
    "city": "Amiens",
    "lat": 49.8941708,
    "lon": 2.2956951,
    "day": 1667559600,
    "temp": 11.27
  },
  {
    "city": "Amiens",
    "lat": 49.8941708,
    "lon": 2.2956951,
    "day": 1667646000,
    "temp": 11.42
  },
  {
    "city": "Amiens",
    "lat": 49.8941708,
    "lon": 2.2956951,
    "day": 1667732400,
    "temp": 9.89
  },
  {
    "city": "Amiens",
    "lat": 49.8941708,
    "lon": 2.2956951,
    "day": 1667818800,
    "temp": 13.52
  },
  {
    "city": "Amiens",
    "lat": 49.8941708,
    "lon": 2.2956951,
    "day": 1667905200,
    "temp": 14.94
  },
  {
    "city": "Amiens",
    "lat": 49.8941708,
    "lon": 2.2956951,
    "day": 1667991600,
    "temp": 15.39
  },
  {
    "city": "Lille",
    "lat": 50.6365654,
    "lon": 3.0635282,
    "day": 1667473200,
    "temp": 14.86
  },
  {
    "city": "Lille",
    "lat": 50.6365654,
    "lon": 3.0635282,
    "day": 1667559600,
    "temp": 10.49
  },
  {
    "city": "Lille",
    "lat": 50.6365654,
    "lon": 3.0635282,
    "day": 1667646000,
    "temp": 11.26
  },
  {
    "city": "Lille",
    "lat": 50.6365654,
    "lon": 3.0635282,
    "day": 1667732400,
    "temp": 10.84
  },
  {
    "city": "Lille",
    "lat": 50.6365654,
    "lon": 3.0635282,
    "day": 1667818800,
    "temp": 14.08
  },
  {
    "city": "Lille",
    "lat": 50.6365654,
    "lon": 3.0635282,
    "day": 1667905200,
    "temp": 14.88
  },
  {
    "city": "Lille",
    "lat": 50.6365654,
    "lon": 3.0635282,
    "day": 1667991600,
    "temp": 14.39
  },
  {
    "city": "Strasbourg",
    "lat": 48.584614,
    "lon": 7.7507127,
    "day": 1667473200,
    "temp": 13.28
  },
  {
    "city": "Strasbourg",
    "lat": 48.584614,
    "lon": 7.7507127,
    "day": 1667559600,
    "temp": 10.98
  },
  {
    "city": "Strasbourg",
    "lat": 48.584614,
    "lon": 7.7507127,
    "day": 1667646000,
    "temp": 10
  },
  {
    "city": "Strasbourg",
    "lat": 48.584614,
    "lon": 7.7507127,
    "day": 1667732400,
    "temp": 9.76
  },
  {
    "city": "Strasbourg",
    "lat": 48.584614,
    "lon": 7.7507127,
    "day": 1667818800,
    "temp": 12.82
  },
  {
    "city": "Strasbourg",
    "lat": 48.584614,
    "lon": 7.7507127,
    "day": 1667905200,
    "temp": 13.01
  },
  {
    "city": "Strasbourg",
    "lat": 48.584614,
    "lon": 7.7507127,
    "day": 1667991600,
    "temp": 12.42
  },
  {
    "city": "Ch\\u00e2teau du Haut-K\\u0153nigsbourg",
    "lat": 48.249489800000006,
    "lon": 7.34429620253195,
    "day": 1667473200,
    "temp": 10.71
  },
  {
    "city": "Ch\\u00e2teau du Haut-K\\u0153nigsbourg",
    "lat": 48.249489800000006,
    "lon": 7.34429620253195,
    "day": 1667559600,
    "temp": 7.16
  },
  {
    "city": "Ch\\u00e2teau du Haut-K\\u0153nigsbourg",
    "lat": 48.249489800000006,
    "lon": 7.34429620253195,
    "day": 1667646000,
    "temp": 6.93
  },
  {
    "city": "Ch\\u00e2teau du Haut-K\\u0153nigsbourg",
    "lat": 48.249489800000006,
    "lon": 7.34429620253195,
    "day": 1667732400,
    "temp": 7.55
  },
  {
    "city": "Ch\\u00e2teau du Haut-K\\u0153nigsbourg",
    "lat": 48.249489800000006,
    "lon": 7.34429620253195,
    "day": 1667818800,
    "temp": 10.78
  },
  {
    "city": "Ch\\u00e2teau du Haut-K\\u0153nigsbourg",
    "lat": 48.249489800000006,
    "lon": 7.34429620253195,
    "day": 1667905200,
    "temp": 11.28
  },
  {
    "city": "Ch\\u00e2teau du Haut-K\\u0153nigsbourg",
    "lat": 48.249489800000006,
    "lon": 7.34429620253195,
    "day": 1667991600,
    "temp": 9.25
  },
  {
    "city": "Colmar",
    "lat": 48.0777517,
    "lon": 7.3579641,
    "day": 1667473200,
    "temp": 13.53
  },
  {
    "city": "Colmar",
    "lat": 48.0777517,
    "lon": 7.3579641,
    "day": 1667559600,
    "temp": 10.72
  },
  {
    "city": "Colmar",
    "lat": 48.0777517,
    "lon": 7.3579641,
    "day": 1667646000,
    "temp": 10.25
  },
  {
    "city": "Colmar",
    "lat": 48.0777517,
    "lon": 7.3579641,
    "day": 1667732400,
    "temp": 9.91
  },
  {
    "city": "Colmar",
    "lat": 48.0777517,
    "lon": 7.3579641,
    "day": 1667818800,
    "temp": 13.26
  },
  {
    "city": "Colmar",
    "lat": 48.0777517,
    "lon": 7.3579641,
    "day": 1667905200,
    "temp": 13.52
  },
  {
    "city": "Colmar",
    "lat": 48.0777517,
    "lon": 7.3579641,
    "day": 1667991600,
    "temp": 12.24
  },
  {
    "city": "Eguisheim",
    "lat": 48.0447968,
    "lon": 7.3079618,
    "day": 1667473200,
    "temp": 13.62
  },
  {
    "city": "Eguisheim",
    "lat": 48.0447968,
    "lon": 7.3079618,
    "day": 1667559600,
    "temp": 10.6
  },
  {
    "city": "Eguisheim",
    "lat": 48.0447968,
    "lon": 7.3079618,
    "day": 1667646000,
    "temp": 10.56
  },
  {
    "city": "Eguisheim",
    "lat": 48.0447968,
    "lon": 7.3079618,
    "day": 1667732400,
    "temp": 10.08
  },
  {
    "city": "Eguisheim",
    "lat": 48.0447968,
    "lon": 7.3079618,
    "day": 1667818800,
    "temp": 13.9
  },
  {
    "city": "Eguisheim",
    "lat": 48.0447968,
    "lon": 7.3079618,
    "day": 1667905200,
    "temp": 13.66
  },
  {
    "city": "Eguisheim",
    "lat": 48.0447968,
    "lon": 7.3079618,
    "day": 1667991600,
    "temp": 12.27
  },
  {
    "city": "Besan\\u00e7on",
    "lat": 47.2380222,
    "lon": 6.0243622,
    "day": 1667473200,
    "temp": 15.26
  },
  {
    "city": "Besan\\u00e7on",
    "lat": 47.2380222,
    "lon": 6.0243622,
    "day": 1667559600,
    "temp": 7.97
  },
  {
    "city": "Besan\\u00e7on",
    "lat": 47.2380222,
    "lon": 6.0243622,
    "day": 1667646000,
    "temp": 9.29
  },
  {
    "city": "Besan\\u00e7on",
    "lat": 47.2380222,
    "lon": 6.0243622,
    "day": 1667732400,
    "temp": 8.15
  },
  {
    "city": "Besan\\u00e7on",
    "lat": 47.2380222,
    "lon": 6.0243622,
    "day": 1667818800,
    "temp": 13.33
  },
  {
    "city": "Besan\\u00e7on",
    "lat": 47.2380222,
    "lon": 6.0243622,
    "day": 1667905200,
    "temp": 16.77
  },
  {
    "city": "Besan\\u00e7on",
    "lat": 47.2380222,
    "lon": 6.0243622,
    "day": 1667991600,
    "temp": 12.31
  },
  {
    "city": "Dijon",
    "lat": 47.3215806,
    "lon": 5.0414701,
    "day": 1667473200,
    "temp": 14.2
  },
  {
    "city": "Dijon",
    "lat": 47.3215806,
    "lon": 5.0414701,
    "day": 1667559600,
    "temp": 7.85
  },
  {
    "city": "Dijon",
    "lat": 47.3215806,
    "lon": 5.0414701,
    "day": 1667646000,
    "temp": 9.78
  },
  {
    "city": "Dijon",
    "lat": 47.3215806,
    "lon": 5.0414701,
    "day": 1667732400,
    "temp": 8.38
  },
  {
    "city": "Dijon",
    "lat": 47.3215806,
    "lon": 5.0414701,
    "day": 1667818800,
    "temp": 14.09
  },
  {
    "city": "Dijon",
    "lat": 47.3215806,
    "lon": 5.0414701,
    "day": 1667905200,
    "temp": 12.62
  },
  {
    "city": "Dijon",
    "lat": 47.3215806,
    "lon": 5.0414701,
    "day": 1667991600,
    "temp": 12.67
  },
  {
    "city": "Annecy",
    "lat": 45.8992348,
    "lon": 6.1288847,
    "day": 1667473200,
    "temp": 15.63
  },
  {
    "city": "Annecy",
    "lat": 45.8992348,
    "lon": 6.1288847,
    "day": 1667559600,
    "temp": 6.96
  },
  {
    "city": "Annecy",
    "lat": 45.8992348,
    "lon": 6.1288847,
    "day": 1667646000,
    "temp": 7.91
  },
  {
    "city": "Annecy",
    "lat": 45.8992348,
    "lon": 6.1288847,
    "day": 1667732400,
    "temp": 10.55
  },
  {
    "city": "Annecy",
    "lat": 45.8992348,
    "lon": 6.1288847,
    "day": 1667818800,
    "temp": 13.19
  },
  {
    "city": "Annecy",
    "lat": 45.8992348,
    "lon": 6.1288847,
    "day": 1667905200,
    "temp": 12.52
  },
  {
    "city": "Annecy",
    "lat": 45.8992348,
    "lon": 6.1288847,
    "day": 1667991600,
    "temp": 11.45
  },
  {
    "city": "Grenoble",
    "lat": 45.1875602,
    "lon": 5.7357819,
    "day": 1667473200,
    "temp": 16.28
  },
  {
    "city": "Grenoble",
    "lat": 45.1875602,
    "lon": 5.7357819,
    "day": 1667559600,
    "temp": 8.9
  },
  {
    "city": "Grenoble",
    "lat": 45.1875602,
    "lon": 5.7357819,
    "day": 1667646000,
    "temp": 8.67
  },
  {
    "city": "Grenoble",
    "lat": 45.1875602,
    "lon": 5.7357819,
    "day": 1667732400,
    "temp": 14.07
  },
  {
    "city": "Grenoble",
    "lat": 45.1875602,
    "lon": 5.7357819,
    "day": 1667818800,
    "temp": 16.26
  },
  {
    "city": "Grenoble",
    "lat": 45.1875602,
    "lon": 5.7357819,
    "day": 1667905200,
    "temp": 18.82
  },
  {
    "city": "Grenoble",
    "lat": 45.1875602,
    "lon": 5.7357819,
    "day": 1667991600,
    "temp": 12.68
  },
  {
    "city": "Lyon",
    "lat": 45.7578137,
    "lon": 4.8320114,
    "day": 1667473200,
    "temp": 17.3
  },
  {
    "city": "Lyon",
    "lat": 45.7578137,
    "lon": 4.8320114,
    "day": 1667559600,
    "temp": 11.66
  },
  {
    "city": "Lyon",
    "lat": 45.7578137,
    "lon": 4.8320114,
    "day": 1667646000,
    "temp": 9.68
  },
  {
    "city": "Lyon",
    "lat": 45.7578137,
    "lon": 4.8320114,
    "day": 1667732400,
    "temp": 11.28
  },
  {
    "city": "Lyon",
    "lat": 45.7578137,
    "lon": 4.8320114,
    "day": 1667818800,
    "temp": 15.15
  },
  {
    "city": "Lyon",
    "lat": 45.7578137,
    "lon": 4.8320114,
    "day": 1667905200,
    "temp": 17.39
  },
  {
    "city": "Lyon",
    "lat": 45.7578137,
    "lon": 4.8320114,
    "day": 1667991600,
    "temp": 16.26
  },
  {
    "city": "Gorges du Verdon",
    "lat": 43.7496562,
    "lon": 6.3285616,
    "day": 1667473200,
    "temp": 13.27
  },
  {
    "city": "Gorges du Verdon",
    "lat": 43.7496562,
    "lon": 6.3285616,
    "day": 1667559600,
    "temp": 7.7
  },
  {
    "city": "Gorges du Verdon",
    "lat": 43.7496562,
    "lon": 6.3285616,
    "day": 1667646000,
    "temp": 12.08
  },
  {
    "city": "Gorges du Verdon",
    "lat": 43.7496562,
    "lon": 6.3285616,
    "day": 1667732400,
    "temp": 13.42
  },
  {
    "city": "Gorges du Verdon",
    "lat": 43.7496562,
    "lon": 6.3285616,
    "day": 1667818800,
    "temp": 14.19
  },
  {
    "city": "Gorges du Verdon",
    "lat": 43.7496562,
    "lon": 6.3285616,
    "day": 1667905200,
    "temp": 11.24
  },
  {
    "city": "Gorges du Verdon",
    "lat": 43.7496562,
    "lon": 6.3285616,
    "day": 1667991600,
    "temp": 11.2
  },
  {
    "city": "Bormes-les-Mimosas",
    "lat": 43.1506968,
    "lon": 6.3419285,
    "day": 1667473200,
    "temp": 20.06
  },
  {
    "city": "Bormes-les-Mimosas",
    "lat": 43.1506968,
    "lon": 6.3419285,
    "day": 1667559600,
    "temp": 16.02
  },
  {
    "city": "Bormes-les-Mimosas",
    "lat": 43.1506968,
    "lon": 6.3419285,
    "day": 1667646000,
    "temp": 15.34
  },
  {
    "city": "Bormes-les-Mimosas",
    "lat": 43.1506968,
    "lon": 6.3419285,
    "day": 1667732400,
    "temp": 17.35
  },
  {
    "city": "Bormes-les-Mimosas",
    "lat": 43.1506968,
    "lon": 6.3419285,
    "day": 1667818800,
    "temp": 17.02
  },
  {
    "city": "Bormes-les-Mimosas",
    "lat": 43.1506968,
    "lon": 6.3419285,
    "day": 1667905200,
    "temp": 16.55
  },
  {
    "city": "Bormes-les-Mimosas",
    "lat": 43.1506968,
    "lon": 6.3419285,
    "day": 1667991600,
    "temp": 18.16
  },
  {
    "city": "Cassis",
    "lat": 43.2140359,
    "lon": 5.5396318,
    "day": 1667473200,
    "temp": 19.83
  },
  {
    "city": "Cassis",
    "lat": 43.2140359,
    "lon": 5.5396318,
    "day": 1667559600,
    "temp": 16.39
  },
  {
    "city": "Cassis",
    "lat": 43.2140359,
    "lon": 5.5396318,
    "day": 1667646000,
    "temp": 15.76
  },
  {
    "city": "Cassis",
    "lat": 43.2140359,
    "lon": 5.5396318,
    "day": 1667732400,
    "temp": 16.63
  },
  {
    "city": "Cassis",
    "lat": 43.2140359,
    "lon": 5.5396318,
    "day": 1667818800,
    "temp": 17.21
  },
  {
    "city": "Cassis",
    "lat": 43.2140359,
    "lon": 5.5396318,
    "day": 1667905200,
    "temp": 19.15
  },
  {
    "city": "Cassis",
    "lat": 43.2140359,
    "lon": 5.5396318,
    "day": 1667991600,
    "temp": 17.69
  },
  {
    "city": "Marseille",
    "lat": 43.2961743,
    "lon": 5.3699525,
    "day": 1667473200,
    "temp": 19.87
  },
  {
    "city": "Marseille",
    "lat": 43.2961743,
    "lon": 5.3699525,
    "day": 1667559600,
    "temp": 16.33
  },
  {
    "city": "Marseille",
    "lat": 43.2961743,
    "lon": 5.3699525,
    "day": 1667646000,
    "temp": 15.21
  },
  {
    "city": "Marseille",
    "lat": 43.2961743,
    "lon": 5.3699525,
    "day": 1667732400,
    "temp": 15.73
  },
  {
    "city": "Marseille",
    "lat": 43.2961743,
    "lon": 5.3699525,
    "day": 1667818800,
    "temp": 16.22
  },
  {
    "city": "Marseille",
    "lat": 43.2961743,
    "lon": 5.3699525,
    "day": 1667905200,
    "temp": 19.43
  },
  {
    "city": "Marseille",
    "lat": 43.2961743,
    "lon": 5.3699525,
    "day": 1667991600,
    "temp": 17.18
  },
  {
    "city": "Aix-en-Provence",
    "lat": 43.5298424,
    "lon": 5.4474738,
    "day": 1667473200,
    "temp": 18.56
  },
  {
    "city": "Aix-en-Provence",
    "lat": 43.5298424,
    "lon": 5.4474738,
    "day": 1667559600,
    "temp": 13.93
  },
  {
    "city": "Aix-en-Provence",
    "lat": 43.5298424,
    "lon": 5.4474738,
    "day": 1667646000,
    "temp": 14.51
  },
  {
    "city": "Aix-en-Provence",
    "lat": 43.5298424,
    "lon": 5.4474738,
    "day": 1667732400,
    "temp": 15.35
  },
  {
    "city": "Aix-en-Provence",
    "lat": 43.5298424,
    "lon": 5.4474738,
    "day": 1667818800,
    "temp": 15.92
  },
  {
    "city": "Aix-en-Provence",
    "lat": 43.5298424,
    "lon": 5.4474738,
    "day": 1667905200,
    "temp": 18.68
  },
  {
    "city": "Aix-en-Provence",
    "lat": 43.5298424,
    "lon": 5.4474738,
    "day": 1667991600,
    "temp": 15.03
  },
  {
    "city": "Avignon",
    "lat": 43.9492493,
    "lon": 4.8059012,
    "day": 1667473200,
    "temp": 17.4
  },
  {
    "city": "Avignon",
    "lat": 43.9492493,
    "lon": 4.8059012,
    "day": 1667559600,
    "temp": 14.91
  },
  {
    "city": "Avignon",
    "lat": 43.9492493,
    "lon": 4.8059012,
    "day": 1667646000,
    "temp": 13.55
  },
  {
    "city": "Avignon",
    "lat": 43.9492493,
    "lon": 4.8059012,
    "day": 1667732400,
    "temp": 13.73
  },
  {
    "city": "Avignon",
    "lat": 43.9492493,
    "lon": 4.8059012,
    "day": 1667818800,
    "temp": 16.46
  },
  {
    "city": "Avignon",
    "lat": 43.9492493,
    "lon": 4.8059012,
    "day": 1667905200,
    "temp": 17.69
  },
  {
    "city": "Avignon",
    "lat": 43.9492493,
    "lon": 4.8059012,
    "day": 1667991600,
    "temp": 17.27
  },
  {
    "city": "Uz\\u00e8s",
    "lat": 44.0121279,
    "lon": 4.4196718,
    "day": 1667473200,
    "temp": 15.25
  },
  {
    "city": "Uz\\u00e8s",
    "lat": 44.0121279,
    "lon": 4.4196718,
    "day": 1667559600,
    "temp": 13.82
  },
  {
    "city": "Uz\\u00e8s",
    "lat": 44.0121279,
    "lon": 4.4196718,
    "day": 1667646000,
    "temp": 13.88
  },
  {
    "city": "Uz\\u00e8s",
    "lat": 44.0121279,
    "lon": 4.4196718,
    "day": 1667732400,
    "temp": 13.43
  },
  {
    "city": "Uz\\u00e8s",
    "lat": 44.0121279,
    "lon": 4.4196718,
    "day": 1667818800,
    "temp": 16.69
  },
  {
    "city": "Uz\\u00e8s",
    "lat": 44.0121279,
    "lon": 4.4196718,
    "day": 1667905200,
    "temp": 15.83
  },
  {
    "city": "Uz\\u00e8s",
    "lat": 44.0121279,
    "lon": 4.4196718,
    "day": 1667991600,
    "temp": 17.52
  },
  {
    "city": "N\\u00eemes",
    "lat": 43.8374249,
    "lon": 4.3600687,
    "day": 1667473200,
    "temp": 17.21
  },
  {
    "city": "N\\u00eemes",
    "lat": 43.8374249,
    "lon": 4.3600687,
    "day": 1667559600,
    "temp": 14.14
  },
  {
    "city": "N\\u00eemes",
    "lat": 43.8374249,
    "lon": 4.3600687,
    "day": 1667646000,
    "temp": 14.84
  },
  {
    "city": "N\\u00eemes",
    "lat": 43.8374249,
    "lon": 4.3600687,
    "day": 1667732400,
    "temp": 15.18
  },
  {
    "city": "N\\u00eemes",
    "lat": 43.8374249,
    "lon": 4.3600687,
    "day": 1667818800,
    "temp": 17.78
  },
  {
    "city": "N\\u00eemes",
    "lat": 43.8374249,
    "lon": 4.3600687,
    "day": 1667905200,
    "temp": 17.33
  },
  {
    "city": "N\\u00eemes",
    "lat": 43.8374249,
    "lon": 4.3600687,
    "day": 1667991600,
    "temp": 18.68
  },
  {
    "city": "Aigues-Mortes",
    "lat": 43.5658225,
    "lon": 4.1912837,
    "day": 1667473200,
    "temp": 19.61
  },
  {
    "city": "Aigues-Mortes",
    "lat": 43.5658225,
    "lon": 4.1912837,
    "day": 1667559600,
    "temp": 14.15
  },
  {
    "city": "Aigues-Mortes",
    "lat": 43.5658225,
    "lon": 4.1912837,
    "day": 1667646000,
    "temp": 15.76
  },
  {
    "city": "Aigues-Mortes",
    "lat": 43.5658225,
    "lon": 4.1912837,
    "day": 1667732400,
    "temp": 14.48
  },
  {
    "city": "Aigues-Mortes",
    "lat": 43.5658225,
    "lon": 4.1912837,
    "day": 1667818800,
    "temp": 16.64
  },
  {
    "city": "Aigues-Mortes",
    "lat": 43.5658225,
    "lon": 4.1912837,
    "day": 1667905200,
    "temp": 18.65
  },
  {
    "city": "Aigues-Mortes",
    "lat": 43.5658225,
    "lon": 4.1912837,
    "day": 1667991600,
    "temp": 18.96
  },
  {
    "city": "Saintes-Maries-de-la-Mer",
    "lat": 43.4522771,
    "lon": 4.4287172,
    "day": 1667473200,
    "temp": 20.21
  },
  {
    "city": "Saintes-Maries-de-la-Mer",
    "lat": 43.4522771,
    "lon": 4.4287172,
    "day": 1667559600,
    "temp": 14.33
  },
  {
    "city": "Saintes-Maries-de-la-Mer",
    "lat": 43.4522771,
    "lon": 4.4287172,
    "day": 1667646000,
    "temp": 15.29
  },
  {
    "city": "Saintes-Maries-de-la-Mer",
    "lat": 43.4522771,
    "lon": 4.4287172,
    "day": 1667732400,
    "temp": 14.58
  },
  {
    "city": "Saintes-Maries-de-la-Mer",
    "lat": 43.4522771,
    "lon": 4.4287172,
    "day": 1667818800,
    "temp": 16.47
  },
  {
    "city": "Saintes-Maries-de-la-Mer",
    "lat": 43.4522771,
    "lon": 4.4287172,
    "day": 1667905200,
    "temp": 19.28
  },
  {
    "city": "Saintes-Maries-de-la-Mer",
    "lat": 43.4522771,
    "lon": 4.4287172,
    "day": 1667991600,
    "temp": 18.84
  },
  {
    "city": "Collioure",
    "lat": 42.52505,
    "lon": 3.0831554,
    "day": 1667473200,
    "temp": 20.71
  },
  {
    "city": "Collioure",
    "lat": 42.52505,
    "lon": 3.0831554,
    "day": 1667559600,
    "temp": 12.77
  },
  {
    "city": "Collioure",
    "lat": 42.52505,
    "lon": 3.0831554,
    "day": 1667646000,
    "temp": 16.45
  },
  {
    "city": "Collioure",
    "lat": 42.52505,
    "lon": 3.0831554,
    "day": 1667732400,
    "temp": 16.96
  },
  {
    "city": "Collioure",
    "lat": 42.52505,
    "lon": 3.0831554,
    "day": 1667818800,
    "temp": 18.75
  },
  {
    "city": "Collioure",
    "lat": 42.52505,
    "lon": 3.0831554,
    "day": 1667905200,
    "temp": 18.52
  },
  {
    "city": "Collioure",
    "lat": 42.52505,
    "lon": 3.0831554,
    "day": 1667991600,
    "temp": 20.39
  },
  {
    "city": "Carcassonne",
    "lat": 43.2130358,
    "lon": 2.3491069,
    "day": 1667473200,
    "temp": 17.02
  },
  {
    "city": "Carcassonne",
    "lat": 43.2130358,
    "lon": 2.3491069,
    "day": 1667559600,
    "temp": 8.96
  },
  {
    "city": "Carcassonne",
    "lat": 43.2130358,
    "lon": 2.3491069,
    "day": 1667646000,
    "temp": 13.55
  },
  {
    "city": "Carcassonne",
    "lat": 43.2130358,
    "lon": 2.3491069,
    "day": 1667732400,
    "temp": 16.39
  },
  {
    "city": "Carcassonne",
    "lat": 43.2130358,
    "lon": 2.3491069,
    "day": 1667818800,
    "temp": 17.76
  },
  {
    "city": "Carcassonne",
    "lat": 43.2130358,
    "lon": 2.3491069,
    "day": 1667905200,
    "temp": 18.9
  },
  {
    "city": "Carcassonne",
    "lat": 43.2130358,
    "lon": 2.3491069,
    "day": 1667991600,
    "temp": 18.48
  },
  {
    "city": "Ari\\u00e8ge",
    "lat": 42.9455368,
    "lon": 1.4065544156065486,
    "day": 1667473200,
    "temp": 15.1
  },
  {
    "city": "Ari\\u00e8ge",
    "lat": 42.9455368,
    "lon": 1.4065544156065486,
    "day": 1667559600,
    "temp": 2.16
  },
  {
    "city": "Ari\\u00e8ge",
    "lat": 42.9455368,
    "lon": 1.4065544156065486,
    "day": 1667646000,
    "temp": 6.76
  },
  {
    "city": "Ari\\u00e8ge",
    "lat": 42.9455368,
    "lon": 1.4065544156065486,
    "day": 1667732400,
    "temp": 12.49
  },
  {
    "city": "Ari\\u00e8ge",
    "lat": 42.9455368,
    "lon": 1.4065544156065486,
    "day": 1667818800,
    "temp": 12.85
  },
  {
    "city": "Ari\\u00e8ge",
    "lat": 42.9455368,
    "lon": 1.4065544156065486,
    "day": 1667905200,
    "temp": 15.27
  },
  {
    "city": "Ari\\u00e8ge",
    "lat": 42.9455368,
    "lon": 1.4065544156065486,
    "day": 1667991600,
    "temp": 11.37
  },
  {
    "city": "Toulouse",
    "lat": 43.6044622,
    "lon": 1.4442469,
    "day": 1667473200,
    "temp": 17.01
  },
  {
    "city": "Toulouse",
    "lat": 43.6044622,
    "lon": 1.4442469,
    "day": 1667559600,
    "temp": 12.03
  },
  {
    "city": "Toulouse",
    "lat": 43.6044622,
    "lon": 1.4442469,
    "day": 1667646000,
    "temp": 13.16
  },
  {
    "city": "Toulouse",
    "lat": 43.6044622,
    "lon": 1.4442469,
    "day": 1667732400,
    "temp": 16.83
  },
  {
    "city": "Toulouse",
    "lat": 43.6044622,
    "lon": 1.4442469,
    "day": 1667818800,
    "temp": 18.18
  },
  {
    "city": "Toulouse",
    "lat": 43.6044622,
    "lon": 1.4442469,
    "day": 1667905200,
    "temp": 17.09
  },
  {
    "city": "Toulouse",
    "lat": 43.6044622,
    "lon": 1.4442469,
    "day": 1667991600,
    "temp": 18.43
  },
  {
    "city": "Montauban",
    "lat": 44.0175835,
    "lon": 1.3549991,
    "day": 1667473200,
    "temp": 17.16
  },
  {
    "city": "Montauban",
    "lat": 44.0175835,
    "lon": 1.3549991,
    "day": 1667559600,
    "temp": 11.9
  },
  {
    "city": "Montauban",
    "lat": 44.0175835,
    "lon": 1.3549991,
    "day": 1667646000,
    "temp": 12.89
  },
  {
    "city": "Montauban",
    "lat": 44.0175835,
    "lon": 1.3549991,
    "day": 1667732400,
    "temp": 14.07
  },
  {
    "city": "Montauban",
    "lat": 44.0175835,
    "lon": 1.3549991,
    "day": 1667818800,
    "temp": 16.28
  },
  {
    "city": "Montauban",
    "lat": 44.0175835,
    "lon": 1.3549991,
    "day": 1667905200,
    "temp": 16.96
  },
  {
    "city": "Montauban",
    "lat": 44.0175835,
    "lon": 1.3549991,
    "day": 1667991600,
    "temp": 18.01
  },
  {
    "city": "Biarritz",
    "lat": 43.471143749999996,
    "lon": -1.552726590666314,
    "day": 1667473200,
    "temp": 19.9
  },
  {
    "city": "Biarritz",
    "lat": 43.471143749999996,
    "lon": -1.552726590666314,
    "day": 1667559600,
    "temp": 15.21
  },
  {
    "city": "Biarritz",
    "lat": 43.471143749999996,
    "lon": -1.552726590666314,
    "day": 1667646000,
    "temp": 15.24
  },
  {
    "city": "Biarritz",
    "lat": 43.471143749999996,
    "lon": -1.552726590666314,
    "day": 1667732400,
    "temp": 16.61
  },
  {
    "city": "Biarritz",
    "lat": 43.471143749999996,
    "lon": -1.552726590666314,
    "day": 1667818800,
    "temp": 18.22
  },
  {
    "city": "Biarritz",
    "lat": 43.471143749999996,
    "lon": -1.552726590666314,
    "day": 1667905200,
    "temp": 17.99
  },
  {
    "city": "Biarritz",
    "lat": 43.471143749999996,
    "lon": -1.552726590666314,
    "day": 1667991600,
    "temp": 18.46
  },
  {
    "city": "Bayonne",
    "lat": 43.4945144,
    "lon": -1.4736657,
    "day": 1667473200,
    "temp": 20.63
  },
  {
    "city": "Bayonne",
    "lat": 43.4945144,
    "lon": -1.4736657,
    "day": 1667559600,
    "temp": 15.72
  },
  {
    "city": "Bayonne",
    "lat": 43.4945144,
    "lon": -1.4736657,
    "day": 1667646000,
    "temp": 15.82
  },
  {
    "city": "Bayonne",
    "lat": 43.4945144,
    "lon": -1.4736657,
    "day": 1667732400,
    "temp": 16.95
  },
  {
    "city": "Bayonne",
    "lat": 43.4945144,
    "lon": -1.4736657,
    "day": 1667818800,
    "temp": 18.59
  },
  {
    "city": "Bayonne",
    "lat": 43.4945144,
    "lon": -1.4736657,
    "day": 1667905200,
    "temp": 18.52
  },
  {
    "city": "Bayonne",
    "lat": 43.4945144,
    "lon": -1.4736657,
    "day": 1667991600,
    "temp": 19.05
  },
  {
    "city": "La Rochelle",
    "lat": 46.1591126,
    "lon": -1.1520434,
    "day": 1667473200,
    "temp": 14.88
  },
  {
    "city": "La Rochelle",
    "lat": 46.1591126,
    "lon": -1.1520434,
    "day": 1667559600,
    "temp": 14.42
  },
  {
    "city": "La Rochelle",
    "lat": 46.1591126,
    "lon": -1.1520434,
    "day": 1667646000,
    "temp": 13.56
  },
  {
    "city": "La Rochelle",
    "lat": 46.1591126,
    "lon": -1.1520434,
    "day": 1667732400,
    "temp": 16.23
  },
  {
    "city": "La Rochelle",
    "lat": 46.1591126,
    "lon": -1.1520434,
    "day": 1667818800,
    "temp": 15.59
  },
  {
    "city": "La Rochelle",
    "lat": 46.1591126,
    "lon": -1.1520434,
    "day": 1667905200,
    "temp": 16.53
  },
  {
    "city": "La Rochelle",
    "lat": 46.1591126,
    "lon": -1.1520434,
    "day": 1667991600,
    "temp": 16.63
  }
]