[
  {
    "city": "Mont Saint-Michel",
    "lat": 48.6359541,
    "lon": -1.511459954959514,
    "day": 1667559600,
    "temp": 13.29
  },
  {
    "city": "Mont Saint-Michel",
    "lat": 48.6359541,
    "lon": -1.511459954959514,
    "day": 1667646000,
    "temp": 12.74
  },
  {
    "city": "Mont Saint-Michel",
    "lat": 48.6359541,
    "lon": -1.511459954959514,
    "day": 1667732400,
    "temp": 14.98
  },
  {
    "city": "Mont Saint-Michel",
    "lat": 48.6359541,
    "lon": -1.511459954959514,
    "day": 1667818800,
    "temp": 16.2
  },
  {
    "city": "Mont Saint-Michel",
    "lat": 48.6359541,
    "lon": -1.511459954959514,
    "day": 1667905200,
    "temp": 15
  },
  {
    "city": "Mont Saint-Michel",
    "lat": 48.6359541,
    "lon": -1.511459954959514,
    "day": 1667991600,
    "temp": 15.41
  },
  {
    "city": "Mont Saint-Michel",
    "lat": 48.6359541,
    "lon": -1.511459954959514,
    "day": 1668078000,
    "temp": 16.2
  },
  {
    "city": "Saint-Malo",
    "lat": 48.649518,
    "lon": -2.0260409,
    "day": 1667559600,
    "temp": 13.59
  },
  {
    "city": "Saint-Malo",
    "lat": 48.649518,
    "lon": -2.0260409,
    "day": 1667646000,
    "temp": 13.16
  },
  {
    "city": "Saint-Malo",
    "lat": 48.649518,
    "lon": -2.0260409,
    "day": 1667732400,
    "temp": 15.1
  },
  {
    "city": "Saint-Malo",
    "lat": 48.649518,
    "lon": -2.0260409,
    "day": 1667818800,
    "temp": 16.02
  },
  {
    "city": "Saint-Malo",
    "lat": 48.649518,
    "lon": -2.0260409,
    "day": 1667905200,
    "temp": 15.05
  },
  {
    "city": "Saint-Malo",
    "lat": 48.649518,
    "lon": -2.0260409,
    "day": 1667991600,
    "temp": 15.52
  },
  {
    "city": "Saint-Malo",
    "lat": 48.649518,
    "lon": -2.0260409,
    "day": 1668078000,
    "temp": 16.21
  },
  {
    "city": "Bayeux",
    "lat": 49.2764624,
    "lon": -0.7024738,
    "day": 1667559600,
    "temp": 12.45
  },
  {
    "city": "Bayeux",
    "lat": 49.2764624,
    "lon": -0.7024738,
    "day": 1667646000,
    "temp": 10.76
  },
  {
    "city": "Bayeux",
    "lat": 49.2764624,
    "lon": -0.7024738,
    "day": 1667732400,
    "temp": 14.29
  },
  {
    "city": "Bayeux",
    "lat": 49.2764624,
    "lon": -0.7024738,
    "day": 1667818800,
    "temp": 16.31
  },
  {
    "city": "Bayeux",
    "lat": 49.2764624,
    "lon": -0.7024738,
    "day": 1667905200,
    "temp": 14.9
  },
  {
    "city": "Bayeux",
    "lat": 49.2764624,
    "lon": -0.7024738,
    "day": 1667991600,
    "temp": 14.97
  },
  {
    "city": "Bayeux",
    "lat": 49.2764624,
    "lon": -0.7024738,
    "day": 1668078000,
    "temp": 15.88
  },
  {
    "city": "Le Havre",
    "lat": 49.4938975,
    "lon": 0.1079732,
    "day": 1667559600,
    "temp": 12.56
  },
  {
    "city": "Le Havre",
    "lat": 49.4938975,
    "lon": 0.1079732,
    "day": 1667646000,
    "temp": 11.75
  },
  {
    "city": "Le Havre",
    "lat": 49.4938975,
    "lon": 0.1079732,
    "day": 1667732400,
    "temp": 13.94
  },
  {
    "city": "Le Havre",
    "lat": 49.4938975,
    "lon": 0.1079732,
    "day": 1667818800,
    "temp": 15.78
  },
  {
    "city": "Le Havre",
    "lat": 49.4938975,
    "lon": 0.1079732,
    "day": 1667905200,
    "temp": 14.85
  },
  {
    "city": "Le Havre",
    "lat": 49.4938975,
    "lon": 0.1079732,
    "day": 1667991600,
    "temp": 14.37
  },
  {
    "city": "Le Havre",
    "lat": 49.4938975,
    "lon": 0.1079732,
    "day": 1668078000,
    "temp": 14.68
  },
  {
    "city": "Rouen",
    "lat": 49.4404591,
    "lon": 1.0939658,
    "day": 1667559600,
    "temp": 11.52
  },
  {
    "city": "Rouen",
    "lat": 49.4404591,
    "lon": 1.0939658,
    "day": 1667646000,
    "temp": 12.1
  },
  {
    "city": "Rouen",
    "lat": 49.4404591,
    "lon": 1.0939658,
    "day": 1667732400,
    "temp": 10.77
  },
  {
    "city": "Rouen",
    "lat": 49.4404591,
    "lon": 1.0939658,
    "day": 1667818800,
    "temp": 14.67
  },
  {
    "city": "Rouen",
    "lat": 49.4404591,
    "lon": 1.0939658,
    "day": 1667905200,
    "temp": 14
  },
  {
    "city": "Rouen",
    "lat": 49.4404591,
    "lon": 1.0939658,
    "day": 1667991600,
    "temp": 14.41
  },
  {
    "city": "Rouen",
    "lat": 49.4404591,
    "lon": 1.0939658,
    "day": 1668078000,
    "temp": 14.81
  },
  {
    "city": "Paris",
    "lat": 48.8588897,
    "lon": 2.3200410217200766,
    "day": 1667559600,
    "temp": 10.83
  },
  {
    "city": "Paris",
    "lat": 48.8588897,
    "lon": 2.3200410217200766,
    "day": 1667646000,
    "temp": 12.24
  },
  {
    "city": "Paris",
    "lat": 48.8588897,
    "lon": 2.3200410217200766,
    "day": 1667732400,
    "temp": 10.72
  },
  {
    "city": "Paris",
    "lat": 48.8588897,
    "lon": 2.3200410217200766,
    "day": 1667818800,
    "temp": 14.32
  },
  {
    "city": "Paris",
    "lat": 48.8588897,
    "lon": 2.3200410217200766,
    "day": 1667905200,
    "temp": 15
  },
  {
    "city": "Paris",
    "lat": 48.8588897,
    "lon": 2.3200410217200766,
    "day": 1667991600,
    "temp": 13.62
  },
  {
    "city": "Paris",
    "lat": 48.8588897,
    "lon": 2.3200410217200766,
    "day": 1668078000,
    "temp": 14.7
  },
  {
    "city": "Amiens",
    "lat": 49.8941708,
    "lon": 2.2956951,
    "day": 1667559600,
    "temp": 9.81
  },
  {
    "city": "Amiens",
    "lat": 49.8941708,
    "lon": 2.2956951,
    "day": 1667646000,
    "temp": 11.99
  },
  {
    "city": "Amiens",
    "lat": 49.8941708,
    "lon": 2.2956951,
    "day": 1667732400,
    "temp": 9.6
  },
  {
    "city": "Amiens",
    "lat": 49.8941708,
    "lon": 2.2956951,
    "day": 1667818800,
    "temp": 15.32
  },
  {
    "city": "Amiens",
    "lat": 49.8941708,
    "lon": 2.2956951,
    "day": 1667905200,
    "temp": 14.45
  },
  {
    "city": "Amiens",
    "lat": 49.8941708,
    "lon": 2.2956951,
    "day": 1667991600,
    "temp": 13.98
  },
  {
    "city": "Amiens",
    "lat": 49.8941708,
    "lon": 2.2956951,
    "day": 1668078000,
    "temp": 14.53
  },
  {
    "city": "Lille",
    "lat": 50.6365654,
    "lon": 3.0635282,
    "day": 1667559600,
    "temp": 10.29
  },
  {
    "city": "Lille",
    "lat": 50.6365654,
    "lon": 3.0635282,
    "day": 1667646000,
    "temp": 11.62
  },
  {
    "city": "Lille",
    "lat": 50.6365654,
    "lon": 3.0635282,
    "day": 1667732400,
    "temp": 10.05
  },
  {
    "city": "Lille",
    "lat": 50.6365654,
    "lon": 3.0635282,
    "day": 1667818800,
    "temp": 13.93
  },
  {
    "city": "Lille",
    "lat": 50.6365654,
    "lon": 3.0635282,
    "day": 1667905200,
    "temp": 14.85
  },
  {
    "city": "Lille",
    "lat": 50.6365654,
    "lon": 3.0635282,
    "day": 1667991600,
    "temp": 13.28
  },
  {
    "city": "Lille",
    "lat": 50.6365654,
    "lon": 3.0635282,
    "day": 1668078000,
    "temp": 14
  },
  {
    "city": "Strasbourg",
    "lat": 48.584614,
    "lon": 7.7507127,
    "day": 1667559600,
    "temp": 10.49
  },
  {
    "city": "Strasbourg",
    "lat": 48.584614,
    "lon": 7.7507127,
    "day": 1667646000,
    "temp": 11.03
  },
  {
    "city": "Strasbourg",
    "lat": 48.584614,
    "lon": 7.7507127,
    "day": 1667732400,
    "temp": 9.85
  },
  {
    "city": "Strasbourg",
    "lat": 48.584614,
    "lon": 7.7507127,
    "day": 1667818800,
    "temp": 15.06
  },
  {
    "city": "Strasbourg",
    "lat": 48.584614,
    "lon": 7.7507127,
    "day": 1667905200,
    "temp": 14.07
  },
  {
    "city": "Strasbourg",
    "lat": 48.584614,
    "lon": 7.7507127,
    "day": 1667991600,
    "temp": 15.62
  },
  {
    "city": "Strasbourg",
    "lat": 48.584614,
    "lon": 7.7507127,
    "day": 1668078000,
    "temp": 13.73
  },
  {
    "city": "Ch\\u00e2teau du Haut-K\\u0153nigsbourg",
    "lat": 48.249489800000006,
    "lon": 7.34429620253195,
    "day": 1667559600,
    "temp": 7.53
  },
  {
    "city": "Ch\\u00e2teau du Haut-K\\u0153nigsbourg",
    "lat": 48.249489800000006,
    "lon": 7.34429620253195,
    "day": 1667646000,
    "temp": 8.39
  },
  {
    "city": "Ch\\u00e2teau du Haut-K\\u0153nigsbourg",
    "lat": 48.249489800000006,
    "lon": 7.34429620253195,
    "day": 1667732400,
    "temp": 7.65
  },
  {
    "city": "Ch\\u00e2teau du Haut-K\\u0153nigsbourg",
    "lat": 48.249489800000006,
    "lon": 7.34429620253195,
    "day": 1667818800,
    "temp": 11.57
  },
  {
    "city": "Ch\\u00e2teau du Haut-K\\u0153nigsbourg",
    "lat": 48.249489800000006,
    "lon": 7.34429620253195,
    "day": 1667905200,
    "temp": 11.83
  },
  {
    "city": "Ch\\u00e2teau du Haut-K\\u0153nigsbourg",
    "lat": 48.249489800000006,
    "lon": 7.34429620253195,
    "day": 1667991600,
    "temp": 12.35
  },
  {
    "city": "Ch\\u00e2teau du Haut-K\\u0153nigsbourg",
    "lat": 48.249489800000006,
    "lon": 7.34429620253195,
    "day": 1668078000,
    "temp": 11.35
  },
  {
    "city": "Colmar",
    "lat": 48.0777517,
    "lon": 7.3579641,
    "day": 1667559600,
    "temp": 11.17
  },
  {
    "city": "Colmar",
    "lat": 48.0777517,
    "lon": 7.3579641,
    "day": 1667646000,
    "temp": 11.61
  },
  {
    "city": "Colmar",
    "lat": 48.0777517,
    "lon": 7.3579641,
    "day": 1667732400,
    "temp": 10.52
  },
  {
    "city": "Colmar",
    "lat": 48.0777517,
    "lon": 7.3579641,
    "day": 1667818800,
    "temp": 14.94
  },
  {
    "city": "Colmar",
    "lat": 48.0777517,
    "lon": 7.3579641,
    "day": 1667905200,
    "temp": 15.95
  },
  {
    "city": "Colmar",
    "lat": 48.0777517,
    "lon": 7.3579641,
    "day": 1667991600,
    "temp": 15.66
  },
  {
    "city": "Colmar",
    "lat": 48.0777517,
    "lon": 7.3579641,
    "day": 1668078000,
    "temp": 14.46
  },
  {
    "city": "Eguisheim",
    "lat": 48.0447968,
    "lon": 7.3079618,
    "day": 1667559600,
    "temp": 11.16
  },
  {
    "city": "Eguisheim",
    "lat": 48.0447968,
    "lon": 7.3079618,
    "day": 1667646000,
    "temp": 11.68
  },
  {
    "city": "Eguisheim",
    "lat": 48.0447968,
    "lon": 7.3079618,
    "day": 1667732400,
    "temp": 10.67
  },
  {
    "city": "Eguisheim",
    "lat": 48.0447968,
    "lon": 7.3079618,
    "day": 1667818800,
    "temp": 14.5
  },
  {
    "city": "Eguisheim",
    "lat": 48.0447968,
    "lon": 7.3079618,
    "day": 1667905200,
    "temp": 14.53
  },
  {
    "city": "Eguisheim",
    "lat": 48.0447968,
    "lon": 7.3079618,
    "day": 1667991600,
    "temp": 15.74
  },
  {
    "city": "Eguisheim",
    "lat": 48.0447968,
    "lon": 7.3079618,
    "day": 1668078000,
    "temp": 14.5
  },
  {
    "city": "Besan\\u00e7on",
    "lat": 47.2380222,
    "lon": 6.0243622,
    "day": 1667559600,
    "temp": 9.04
  },
  {
    "city": "Besan\\u00e7on",
    "lat": 47.2380222,
    "lon": 6.0243622,
    "day": 1667646000,
    "temp": 9.57
  },
  {
    "city": "Besan\\u00e7on",
    "lat": 47.2380222,
    "lon": 6.0243622,
    "day": 1667732400,
    "temp": 10.74
  },
  {
    "city": "Besan\\u00e7on",
    "lat": 47.2380222,
    "lon": 6.0243622,
    "day": 1667818800,
    "temp": 14.18
  },
  {
    "city": "Besan\\u00e7on",
    "lat": 47.2380222,
    "lon": 6.0243622,
    "day": 1667905200,
    "temp": 15.64
  },
  {
    "city": "Besan\\u00e7on",
    "lat": 47.2380222,
    "lon": 6.0243622,
    "day": 1667991600,
    "temp": 14.34
  },
  {
    "city": "Besan\\u00e7on",
    "lat": 47.2380222,
    "lon": 6.0243622,
    "day": 1668078000,
    "temp": 14.2
  },
  {
    "city": "Dijon",
    "lat": 47.3215806,
    "lon": 5.0414701,
    "day": 1667559600,
    "temp": 8.1
  },
  {
    "city": "Dijon",
    "lat": 47.3215806,
    "lon": 5.0414701,
    "day": 1667646000,
    "temp": 10.65
  },
  {
    "city": "Dijon",
    "lat": 47.3215806,
    "lon": 5.0414701,
    "day": 1667732400,
    "temp": 9.26
  },
  {
    "city": "Dijon",
    "lat": 47.3215806,
    "lon": 5.0414701,
    "day": 1667818800,
    "temp": 13.53
  },
  {
    "city": "Dijon",
    "lat": 47.3215806,
    "lon": 5.0414701,
    "day": 1667905200,
    "temp": 14.88
  },
  {
    "city": "Dijon",
    "lat": 47.3215806,
    "lon": 5.0414701,
    "day": 1667991600,
    "temp": 14.56
  },
  {
    "city": "Dijon",
    "lat": 47.3215806,
    "lon": 5.0414701,
    "day": 1668078000,
    "temp": 14.21
  },
  {
    "city": "Annecy",
    "lat": 45.8992348,
    "lon": 6.1288847,
    "day": 1667559600,
    "temp": 8.89
  },
  {
    "city": "Annecy",
    "lat": 45.8992348,
    "lon": 6.1288847,
    "day": 1667646000,
    "temp": 8.02
  },
  {
    "city": "Annecy",
    "lat": 45.8992348,
    "lon": 6.1288847,
    "day": 1667732400,
    "temp": 12.51
  },
  {
    "city": "Annecy",
    "lat": 45.8992348,
    "lon": 6.1288847,
    "day": 1667818800,
    "temp": 14.86
  },
  {
    "city": "Annecy",
    "lat": 45.8992348,
    "lon": 6.1288847,
    "day": 1667905200,
    "temp": 15.74
  },
  {
    "city": "Annecy",
    "lat": 45.8992348,
    "lon": 6.1288847,
    "day": 1667991600,
    "temp": 13.42
  },
  {
    "city": "Annecy",
    "lat": 45.8992348,
    "lon": 6.1288847,
    "day": 1668078000,
    "temp": 14.43
  },
  {
    "city": "Grenoble",
    "lat": 45.1875602,
    "lon": 5.7357819,
    "day": 1667559600,
    "temp": 11.65
  },
  {
    "city": "Grenoble",
    "lat": 45.1875602,
    "lon": 5.7357819,
    "day": 1667646000,
    "temp": 9.1
  },
  {
    "city": "Grenoble",
    "lat": 45.1875602,
    "lon": 5.7357819,
    "day": 1667732400,
    "temp": 16.21
  },
  {
    "city": "Grenoble",
    "lat": 45.1875602,
    "lon": 5.7357819,
    "day": 1667818800,
    "temp": 17.72
  },
  {
    "city": "Grenoble",
    "lat": 45.1875602,
    "lon": 5.7357819,
    "day": 1667905200,
    "temp": 19.69
  },
  {
    "city": "Grenoble",
    "lat": 45.1875602,
    "lon": 5.7357819,
    "day": 1667991600,
    "temp": 18.21
  },
  {
    "city": "Grenoble",
    "lat": 45.1875602,
    "lon": 5.7357819,
    "day": 1668078000,
    "temp": 15.14
  },
  {
    "city": "Lyon",
    "lat": 45.7578137,
    "lon": 4.8320114,
    "day": 1667559600,
    "temp": 10.26
  },
  {
    "city": "Lyon",
    "lat": 45.7578137,
    "lon": 4.8320114,
    "day": 1667646000,
    "temp": 10.18
  },
  {
    "city": "Lyon",
    "lat": 45.7578137,
    "lon": 4.8320114,
    "day": 1667732400,
    "temp": 11.47
  },
  {
    "city": "Lyon",
    "lat": 45.7578137,
    "lon": 4.8320114,
    "day": 1667818800,
    "temp": 15.04
  },
  {
    "city": "Lyon",
    "lat": 45.7578137,
    "lon": 4.8320114,
    "day": 1667905200,
    "temp": 18.63
  },
  {
    "city": "Lyon",
    "lat": 45.7578137,
    "lon": 4.8320114,
    "day": 1667991600,
    "temp": 16.23
  },
  {
    "city": "Lyon",
    "lat": 45.7578137,
    "lon": 4.8320114,
    "day": 1668078000,
    "temp": 15.36
  },
  {
    "city": "Gorges du Verdon",
    "lat": 43.7496562,
    "lon": 6.3285616,
    "day": 1667559600,
    "temp": 10.12
  },
  {
    "city": "Gorges du Verdon",
    "lat": 43.7496562,
    "lon": 6.3285616,
    "day": 1667646000,
    "temp": 13.14
  },
  {
    "city": "Gorges du Verdon",
    "lat": 43.7496562,
    "lon": 6.3285616,
    "day": 1667732400,
    "temp": 13.89
  },
  {
    "city": "Gorges du Verdon",
    "lat": 43.7496562,
    "lon": 6.3285616,
    "day": 1667818800,
    "temp": 14.32
  },
  {
    "city": "Gorges du Verdon",
    "lat": 43.7496562,
    "lon": 6.3285616,
    "day": 1667905200,
    "temp": 14.67
  },
  {
    "city": "Gorges du Verdon",
    "lat": 43.7496562,
    "lon": 6.3285616,
    "day": 1667991600,
    "temp": 15.9
  },
  {
    "city": "Gorges du Verdon",
    "lat": 43.7496562,
    "lon": 6.3285616,
    "day": 1668078000,
    "temp": 15.04
  },
  {
    "city": "Bormes-les-Mimosas",
    "lat": 43.1506968,
    "lon": 6.3419285,
    "day": 1667559600,
    "temp": 16.54
  },
  {
    "city": "Bormes-les-Mimosas",
    "lat": 43.1506968,
    "lon": 6.3419285,
    "day": 1667646000,
    "temp": 16
  },
  {
    "city": "Bormes-les-Mimosas",
    "lat": 43.1506968,
    "lon": 6.3419285,
    "day": 1667732400,
    "temp": 17.8
  },
  {
    "city": "Bormes-les-Mimosas",
    "lat": 43.1506968,
    "lon": 6.3419285,
    "day": 1667818800,
    "temp": 17.66
  },
  {
    "city": "Bormes-les-Mimosas",
    "lat": 43.1506968,
    "lon": 6.3419285,
    "day": 1667905200,
    "temp": 18.61
  },
  {
    "city": "Bormes-les-Mimosas",
    "lat": 43.1506968,
    "lon": 6.3419285,
    "day": 1667991600,
    "temp": 19.2
  },
  {
    "city": "Bormes-les-Mimosas",
    "lat": 43.1506968,
    "lon": 6.3419285,
    "day": 1668078000,
    "temp": 19.32
  },
  {
    "city": "Cassis",
    "lat": 43.2140359,
    "lon": 5.5396318,
    "day": 1667559600,
    "temp": 16.35
  },
  {
    "city": "Cassis",
    "lat": 43.2140359,
    "lon": 5.5396318,
    "day": 1667646000,
    "temp": 16.36
  },
  {
    "city": "Cassis",
    "lat": 43.2140359,
    "lon": 5.5396318,
    "day": 1667732400,
    "temp": 17.76
  },
  {
    "city": "Cassis",
    "lat": 43.2140359,
    "lon": 5.5396318,
    "day": 1667818800,
    "temp": 18.41
  },
  {
    "city": "Cassis",
    "lat": 43.2140359,
    "lon": 5.5396318,
    "day": 1667905200,
    "temp": 19.84
  },
  {
    "city": "Cassis",
    "lat": 43.2140359,
    "lon": 5.5396318,
    "day": 1667991600,
    "temp": 20.64
  },
  {
    "city": "Cassis",
    "lat": 43.2140359,
    "lon": 5.5396318,
    "day": 1668078000,
    "temp": 19.58
  },
  {
    "city": "Marseille",
    "lat": 43.2961743,
    "lon": 5.3699525,
    "day": 1667559600,
    "temp": 16.24
  },
  {
    "city": "Marseille",
    "lat": 43.2961743,
    "lon": 5.3699525,
    "day": 1667646000,
    "temp": 15.85
  },
  {
    "city": "Marseille",
    "lat": 43.2961743,
    "lon": 5.3699525,
    "day": 1667732400,
    "temp": 17.56
  },
  {
    "city": "Marseille",
    "lat": 43.2961743,
    "lon": 5.3699525,
    "day": 1667818800,
    "temp": 17.58
  },
  {
    "city": "Marseille",
    "lat": 43.2961743,
    "lon": 5.3699525,
    "day": 1667905200,
    "temp": 19.38
  },
  {
    "city": "Marseille",
    "lat": 43.2961743,
    "lon": 5.3699525,
    "day": 1667991600,
    "temp": 20.56
  },
  {
    "city": "Marseille",
    "lat": 43.2961743,
    "lon": 5.3699525,
    "day": 1668078000,
    "temp": 19.31
  },
  {
    "city": "Aix-en-Provence",
    "lat": 43.5298424,
    "lon": 5.4474738,
    "day": 1667559600,
    "temp": 14.5
  },
  {
    "city": "Aix-en-Provence",
    "lat": 43.5298424,
    "lon": 5.4474738,
    "day": 1667646000,
    "temp": 14.9
  },
  {
    "city": "Aix-en-Provence",
    "lat": 43.5298424,
    "lon": 5.4474738,
    "day": 1667732400,
    "temp": 16.63
  },
  {
    "city": "Aix-en-Provence",
    "lat": 43.5298424,
    "lon": 5.4474738,
    "day": 1667818800,
    "temp": 17.15
  },
  {
    "city": "Aix-en-Provence",
    "lat": 43.5298424,
    "lon": 5.4474738,
    "day": 1667905200,
    "temp": 18.41
  },
  {
    "city": "Aix-en-Provence",
    "lat": 43.5298424,
    "lon": 5.4474738,
    "day": 1667991600,
    "temp": 20.15
  },
  {
    "city": "Aix-en-Provence",
    "lat": 43.5298424,
    "lon": 5.4474738,
    "day": 1668078000,
    "temp": 18.97
  },
  {
    "city": "Avignon",
    "lat": 43.9492493,
    "lon": 4.8059012,
    "day": 1667559600,
    "temp": 13.99
  },
  {
    "city": "Avignon",
    "lat": 43.9492493,
    "lon": 4.8059012,
    "day": 1667646000,
    "temp": 14.28
  },
  {
    "city": "Avignon",
    "lat": 43.9492493,
    "lon": 4.8059012,
    "day": 1667732400,
    "temp": 15.16
  },
  {
    "city": "Avignon",
    "lat": 43.9492493,
    "lon": 4.8059012,
    "day": 1667818800,
    "temp": 16.85
  },
  {
    "city": "Avignon",
    "lat": 43.9492493,
    "lon": 4.8059012,
    "day": 1667905200,
    "temp": 19.28
  },
  {
    "city": "Avignon",
    "lat": 43.9492493,
    "lon": 4.8059012,
    "day": 1667991600,
    "temp": 19.1
  },
  {
    "city": "Avignon",
    "lat": 43.9492493,
    "lon": 4.8059012,
    "day": 1668078000,
    "temp": 18.18
  },
  {
    "city": "Uz\\u00e8s",
    "lat": 44.0121279,
    "lon": 4.4196718,
    "day": 1667559600,
    "temp": 13.25
  },
  {
    "city": "Uz\\u00e8s",
    "lat": 44.0121279,
    "lon": 4.4196718,
    "day": 1667646000,
    "temp": 14.39
  },
  {
    "city": "Uz\\u00e8s",
    "lat": 44.0121279,
    "lon": 4.4196718,
    "day": 1667732400,
    "temp": 14.31
  },
  {
    "city": "Uz\\u00e8s",
    "lat": 44.0121279,
    "lon": 4.4196718,
    "day": 1667818800,
    "temp": 18.54
  },
  {
    "city": "Uz\\u00e8s",
    "lat": 44.0121279,
    "lon": 4.4196718,
    "day": 1667905200,
    "temp": 16.6
  },
  {
    "city": "Uz\\u00e8s",
    "lat": 44.0121279,
    "lon": 4.4196718,
    "day": 1667991600,
    "temp": 18.1
  },
  {
    "city": "Uz\\u00e8s",
    "lat": 44.0121279,
    "lon": 4.4196718,
    "day": 1668078000,
    "temp": 17.07
  },
  {
    "city": "N\\u00eemes",
    "lat": 43.8374249,
    "lon": 4.3600687,
    "day": 1667559600,
    "temp": 14.43
  },
  {
    "city": "N\\u00eemes",
    "lat": 43.8374249,
    "lon": 4.3600687,
    "day": 1667646000,
    "temp": 15.27
  },
  {
    "city": "N\\u00eemes",
    "lat": 43.8374249,
    "lon": 4.3600687,
    "day": 1667732400,
    "temp": 14.8
  },
  {
    "city": "N\\u00eemes",
    "lat": 43.8374249,
    "lon": 4.3600687,
    "day": 1667818800,
    "temp": 18.97
  },
  {
    "city": "N\\u00eemes",
    "lat": 43.8374249,
    "lon": 4.3600687,
    "day": 1667905200,
    "temp": 18.18
  },
  {
    "city": "N\\u00eemes",
    "lat": 43.8374249,
    "lon": 4.3600687,
    "day": 1667991600,
    "temp": 18.92
  },
  {
    "city": "N\\u00eemes",
    "lat": 43.8374249,
    "lon": 4.3600687,
    "day": 1668078000,
    "temp": 18.04
  },
  {
    "city": "Aigues-Mortes",
    "lat": 43.5658225,
    "lon": 4.1912837,
    "day": 1667559600,
    "temp": 14.49
  },
  {
    "city": "Aigues-Mortes",
    "lat": 43.5658225,
    "lon": 4.1912837,
    "day": 1667646000,
    "temp": 16.06
  },
  {
    "city": "Aigues-Mortes",
    "lat": 43.5658225,
    "lon": 4.1912837,
    "day": 1667732400,
    "temp": 14.88
  },
  {
    "city": "Aigues-Mortes",
    "lat": 43.5658225,
    "lon": 4.1912837,
    "day": 1667818800,
    "temp": 17.71
  },
  {
    "city": "Aigues-Mortes",
    "lat": 43.5658225,
    "lon": 4.1912837,
    "day": 1667905200,
    "temp": 19.26
  },
  {
    "city": "Aigues-Mortes",
    "lat": 43.5658225,
    "lon": 4.1912837,
    "day": 1667991600,
    "temp": 19.64
  },
  {
    "city": "Aigues-Mortes",
    "lat": 43.5658225,
    "lon": 4.1912837,
    "day": 1668078000,
    "temp": 18.68
  },
  {
    "city": "Saintes-Maries-de-la-Mer",
    "lat": 43.4522771,
    "lon": 4.4287172,
    "day": 1667559600,
    "temp": 15.02
  },
  {
    "city": "Saintes-Maries-de-la-Mer",
    "lat": 43.4522771,
    "lon": 4.4287172,
    "day": 1667646000,
    "temp": 15.73
  },
  {
    "city": "Saintes-Maries-de-la-Mer",
    "lat": 43.4522771,
    "lon": 4.4287172,
    "day": 1667732400,
    "temp": 14.55
  },
  {
    "city": "Saintes-Maries-de-la-Mer",
    "lat": 43.4522771,
    "lon": 4.4287172,
    "day": 1667818800,
    "temp": 17.65
  },
  {
    "city": "Saintes-Maries-de-la-Mer",
    "lat": 43.4522771,
    "lon": 4.4287172,
    "day": 1667905200,
    "temp": 19.22
  },
  {
    "city": "Saintes-Maries-de-la-Mer",
    "lat": 43.4522771,
    "lon": 4.4287172,
    "day": 1667991600,
    "temp": 19.93
  },
  {
    "city": "Saintes-Maries-de-la-Mer",
    "lat": 43.4522771,
    "lon": 4.4287172,
    "day": 1668078000,
    "temp": 18.07
  },
  {
    "city": "Collioure",
    "lat": 42.52505,
    "lon": 3.0831554,
    "day": 1667559600,
    "temp": 14.34
  },
  {
    "city": "Collioure",
    "lat": 42.52505,
    "lon": 3.0831554,
    "day": 1667646000,
    "temp": 16.84
  },
  {
    "city": "Collioure",
    "lat": 42.52505,
    "lon": 3.0831554,
    "day": 1667732400,
    "temp": 16.78
  },
  {
    "city": "Collioure",
    "lat": 42.52505,
    "lon": 3.0831554,
    "day": 1667818800,
    "temp": 18.73
  },
  {
    "city": "Collioure",
    "lat": 42.52505,
    "lon": 3.0831554,
    "day": 1667905200,
    "temp": 19.2
  },
  {
    "city": "Collioure",
    "lat": 42.52505,
    "lon": 3.0831554,
    "day": 1667991600,
    "temp": 19.4
  },
  {
    "city": "Collioure",
    "lat": 42.52505,
    "lon": 3.0831554,
    "day": 1668078000,
    "temp": 19.83
  },
  {
    "city": "Carcassonne",
    "lat": 43.2130358,
    "lon": 2.3491069,
    "day": 1667559600,
    "temp": 12.09
  },
  {
    "city": "Carcassonne",
    "lat": 43.2130358,
    "lon": 2.3491069,
    "day": 1667646000,
    "temp": 13.7
  },
  {
    "city": "Carcassonne",
    "lat": 43.2130358,
    "lon": 2.3491069,
    "day": 1667732400,
    "temp": 15.96
  },
  {
    "city": "Carcassonne",
    "lat": 43.2130358,
    "lon": 2.3491069,
    "day": 1667818800,
    "temp": 18.15
  },
  {
    "city": "Carcassonne",
    "lat": 43.2130358,
    "lon": 2.3491069,
    "day": 1667905200,
    "temp": 19.37
  },
  {
    "city": "Carcassonne",
    "lat": 43.2130358,
    "lon": 2.3491069,
    "day": 1667991600,
    "temp": 20.94
  },
  {
    "city": "Carcassonne",
    "lat": 43.2130358,
    "lon": 2.3491069,
    "day": 1668078000,
    "temp": 18.99
  },
  {
    "city": "Ari\\u00e8ge",
    "lat": 42.9455368,
    "lon": 1.4065544156065486,
    "day": 1667559600,
    "temp": 3.69
  },
  {
    "city": "Ari\\u00e8ge",
    "lat": 42.9455368,
    "lon": 1.4065544156065486,
    "day": 1667646000,
    "temp": 7.64
  },
  {
    "city": "Ari\\u00e8ge",
    "lat": 42.9455368,
    "lon": 1.4065544156065486,
    "day": 1667732400,
    "temp": 13.38
  },
  {
    "city": "Ari\\u00e8ge",
    "lat": 42.9455368,
    "lon": 1.4065544156065486,
    "day": 1667818800,
    "temp": 13.72
  },
  {
    "city": "Ari\\u00e8ge",
    "lat": 42.9455368,
    "lon": 1.4065544156065486,
    "day": 1667905200,
    "temp": 16.19
  },
  {
    "city": "Ari\\u00e8ge",
    "lat": 42.9455368,
    "lon": 1.4065544156065486,
    "day": 1667991600,
    "temp": 14.24
  },
  {
    "city": "Ari\\u00e8ge",
    "lat": 42.9455368,
    "lon": 1.4065544156065486,
    "day": 1668078000,
    "temp": 13.21
  },
  {
    "city": "Toulouse",
    "lat": 43.6044622,
    "lon": 1.4442469,
    "day": 1667559600,
    "temp": 14.18
  },
  {
    "city": "Toulouse",
    "lat": 43.6044622,
    "lon": 1.4442469,
    "day": 1667646000,
    "temp": 13.48
  },
  {
    "city": "Toulouse",
    "lat": 43.6044622,
    "lon": 1.4442469,
    "day": 1667732400,
    "temp": 15.69
  },
  {
    "city": "Toulouse",
    "lat": 43.6044622,
    "lon": 1.4442469,
    "day": 1667818800,
    "temp": 19.13
  },
  {
    "city": "Toulouse",
    "lat": 43.6044622,
    "lon": 1.4442469,
    "day": 1667905200,
    "temp": 20.92
  },
  {
    "city": "Toulouse",
    "lat": 43.6044622,
    "lon": 1.4442469,
    "day": 1667991600,
    "temp": 18.28
  },
  {
    "city": "Toulouse",
    "lat": 43.6044622,
    "lon": 1.4442469,
    "day": 1668078000,
    "temp": 17.19
  },
  {
    "city": "Montauban",
    "lat": 44.0175835,
    "lon": 1.3549991,
    "day": 1667559600,
    "temp": 14.73
  },
  {
    "city": "Montauban",
    "lat": 44.0175835,
    "lon": 1.3549991,
    "day": 1667646000,
    "temp": 13.08
  },
  {
    "city": "Montauban",
    "lat": 44.0175835,
    "lon": 1.3549991,
    "day": 1667732400,
    "temp": 14.97
  },
  {
    "city": "Montauban",
    "lat": 44.0175835,
    "lon": 1.3549991,
    "day": 1667818800,
    "temp": 17.25
  },
  {
    "city": "Montauban",
    "lat": 44.0175835,
    "lon": 1.3549991,
    "day": 1667905200,
    "temp": 19.7
  },
  {
    "city": "Montauban",
    "lat": 44.0175835,
    "lon": 1.3549991,
    "day": 1667991600,
    "temp": 18.41
  },
  {
    "city": "Montauban",
    "lat": 44.0175835,
    "lon": 1.3549991,
    "day": 1668078000,
    "temp": 17.02
  },
  {
    "city": "Biarritz",
    "lat": 43.471143749999996,
    "lon": -1.552726590666314,
    "day": 1667559600,
    "temp": 14.61
  },
  {
    "city": "Biarritz",
    "lat": 43.471143749999996,
    "lon": -1.552726590666314,
    "day": 1667646000,
    "temp": 15.29
  },
  {
    "city": "Biarritz",
    "lat": 43.471143749999996,
    "lon": -1.552726590666314,
    "day": 1667732400,
    "temp": 16.17
  },
  {
    "city": "Biarritz",
    "lat": 43.471143749999996,
    "lon": -1.552726590666314,
    "day": 1667818800,
    "temp": 18.41
  },
  {
    "city": "Biarritz",
    "lat": 43.471143749999996,
    "lon": -1.552726590666314,
    "day": 1667905200,
    "temp": 19.58
  },
  {
    "city": "Biarritz",
    "lat": 43.471143749999996,
    "lon": -1.552726590666314,
    "day": 1667991600,
    "temp": 16.39
  },
  {
    "city": "Biarritz",
    "lat": 43.471143749999996,
    "lon": -1.552726590666314,
    "day": 1668078000,
    "temp": 18.66
  },
  {
    "city": "Bayonne",
    "lat": 43.4945144,
    "lon": -1.4736657,
    "day": 1667559600,
    "temp": 15.03
  },
  {
    "city": "Bayonne",
    "lat": 43.4945144,
    "lon": -1.4736657,
    "day": 1667646000,
    "temp": 16.03
  },
  {
    "city": "Bayonne",
    "lat": 43.4945144,
    "lon": -1.4736657,
    "day": 1667732400,
    "temp": 16.46
  },
  {
    "city": "Bayonne",
    "lat": 43.4945144,
    "lon": -1.4736657,
    "day": 1667818800,
    "temp": 19.15
  },
  {
    "city": "Bayonne",
    "lat": 43.4945144,
    "lon": -1.4736657,
    "day": 1667905200,
    "temp": 20.37
  },
  {
    "city": "Bayonne",
    "lat": 43.4945144,
    "lon": -1.4736657,
    "day": 1667991600,
    "temp": 16.99
  },
  {
    "city": "Bayonne",
    "lat": 43.4945144,
    "lon": -1.4736657,
    "day": 1668078000,
    "temp": 19.16
  },
  {
    "city": "La Rochelle",
    "lat": 46.1591126,
    "lon": -1.1520434,
    "day": 1667559600,
    "temp": 14.08
  },
  {
    "city": "La Rochelle",
    "lat": 46.1591126,
    "lon": -1.1520434,
    "day": 1667646000,
    "temp": 15.22
  },
  {
    "city": "La Rochelle",
    "lat": 46.1591126,
    "lon": -1.1520434,
    "day": 1667732400,
    "temp": 16.65
  },
  {
    "city": "La Rochelle",
    "lat": 46.1591126,
    "lon": -1.1520434,
    "day": 1667818800,
    "temp": 16.55
  },
  {
    "city": "La Rochelle",
    "lat": 46.1591126,
    "lon": -1.1520434,
    "day": 1667905200,
    "temp": 16.52
  },
  {
    "city": "La Rochelle",
    "lat": 46.1591126,
    "lon": -1.1520434,
    "day": 1667991600,
    "temp": 16.58
  },
  {
    "city": "La Rochelle",
    "lat": 46.1591126,
    "lon": -1.1520434,
    "day": 1668078000,
    "temp": 15.9
  }
]