[
  {
    "city": "Mont Saint-Michel",
    "lat": 48.6359541,
    "lon": -1.511459954959514,
    "day": 1667214000,
    "temp": 15.09
  },
  {
    "city": "Mont Saint-Michel",
    "lat": 48.6359541,
    "lon": -1.511459954959514,
    "day": 1667300400,
    "temp": 16.46
  },
  {
    "city": "Mont Saint-Michel",
    "lat": 48.6359541,
    "lon": -1.511459954959514,
    "day": 1667386800,
    "temp": 14.21
  },
  {
    "city": "Mont Saint-Michel",
    "lat": 48.6359541,
    "lon": -1.511459954959514,
    "day": 1667473200,
    "temp": 12.18
  },
  {
    "city": "Mont Saint-Michel",
    "lat": 48.6359541,
    "lon": -1.511459954959514,
    "day": 1667559600,
    "temp": 12.86
  },
  {
    "city": "Mont Saint-Michel",
    "lat": 48.6359541,
    "lon": -1.511459954959514,
    "day": 1667646000,
    "temp": 14.22
  },
  {
    "city": "Mont Saint-Michel",
    "lat": 48.6359541,
    "lon": -1.511459954959514,
    "day": 1667732400,
    "temp": 15.96
  },
  {
    "city": "Saint-Malo",
    "lat": 48.649518,
    "lon": -2.0260409,
    "day": 1667214000,
    "temp": 14.83
  },
  {
    "city": "Saint-Malo",
    "lat": 48.649518,
    "lon": -2.0260409,
    "day": 1667300400,
    "temp": 16.31
  },
  {
    "city": "Saint-Malo",
    "lat": 48.649518,
    "lon": -2.0260409,
    "day": 1667386800,
    "temp": 14.55
  },
  {
    "city": "Saint-Malo",
    "lat": 48.649518,
    "lon": -2.0260409,
    "day": 1667473200,
    "temp": 12.7
  },
  {
    "city": "Saint-Malo",
    "lat": 48.649518,
    "lon": -2.0260409,
    "day": 1667559600,
    "temp": 13.52
  },
  {
    "city": "Saint-Malo",
    "lat": 48.649518,
    "lon": -2.0260409,
    "day": 1667646000,
    "temp": 14.69
  },
  {
    "city": "Saint-Malo",
    "lat": 48.649518,
    "lon": -2.0260409,
    "day": 1667732400,
    "temp": 15.96
  },
  {
    "city": "Bayeux",
    "lat": 49.2764624,
    "lon": -0.7024738,
    "day": 1667214000,
    "temp": 16.7
  },
  {
    "city": "Bayeux",
    "lat": 49.2764624,
    "lon": -0.7024738,
    "day": 1667300400,
    "temp": 16.47
  },
  {
    "city": "Bayeux",
    "lat": 49.2764624,
    "lon": -0.7024738,
    "day": 1667386800,
    "temp": 13.66
  },
  {
    "city": "Bayeux",
    "lat": 49.2764624,
    "lon": -0.7024738,
    "day": 1667473200,
    "temp": 12.32
  },
  {
    "city": "Bayeux",
    "lat": 49.2764624,
    "lon": -0.7024738,
    "day": 1667559600,
    "temp": 12.27
  },
  {
    "city": "Bayeux",
    "lat": 49.2764624,
    "lon": -0.7024738,
    "day": 1667646000,
    "temp": 12.55
  },
  {
    "city": "Bayeux",
    "lat": 49.2764624,
    "lon": -0.7024738,
    "day": 1667732400,
    "temp": 15.01
  },
  {
    "city": "Le Havre",
    "lat": 49.4938975,
    "lon": 0.1079732,
    "day": 1667214000,
    "temp": 16.55
  },
  {
    "city": "Le Havre",
    "lat": 49.4938975,
    "lon": 0.1079732,
    "day": 1667300400,
    "temp": 16.03
  },
  {
    "city": "Le Havre",
    "lat": 49.4938975,
    "lon": 0.1079732,
    "day": 1667386800,
    "temp": 13.56
  },
  {
    "city": "Le Havre",
    "lat": 49.4938975,
    "lon": 0.1079732,
    "day": 1667473200,
    "temp": 13.08
  },
  {
    "city": "Le Havre",
    "lat": 49.4938975,
    "lon": 0.1079732,
    "day": 1667559600,
    "temp": 12.74
  },
  {
    "city": "Le Havre",
    "lat": 49.4938975,
    "lon": 0.1079732,
    "day": 1667646000,
    "temp": 12.45
  },
  {
    "city": "Le Havre",
    "lat": 49.4938975,
    "lon": 0.1079732,
    "day": 1667732400,
    "temp": 14.83
  },
  {
    "city": "Rouen",
    "lat": 49.4404591,
    "lon": 1.0939658,
    "day": 1667214000,
    "temp": 17.89
  },
  {
    "city": "Rouen",
    "lat": 49.4404591,
    "lon": 1.0939658,
    "day": 1667300400,
    "temp": 14.62
  },
  {
    "city": "Rouen",
    "lat": 49.4404591,
    "lon": 1.0939658,
    "day": 1667386800,
    "temp": 13.79
  },
  {
    "city": "Rouen",
    "lat": 49.4404591,
    "lon": 1.0939658,
    "day": 1667473200,
    "temp": 12.66
  },
  {
    "city": "Rouen",
    "lat": 49.4404591,
    "lon": 1.0939658,
    "day": 1667559600,
    "temp": 11.78
  },
  {
    "city": "Rouen",
    "lat": 49.4404591,
    "lon": 1.0939658,
    "day": 1667646000,
    "temp": 10.47
  },
  {
    "city": "Rouen",
    "lat": 49.4404591,
    "lon": 1.0939658,
    "day": 1667732400,
    "temp": 14.3
  },
  {
    "city": "Paris",
    "lat": 48.8588897,
    "lon": 2.3200410217200766,
    "day": 1667214000,
    "temp": 19.65
  },
  {
    "city": "Paris",
    "lat": 48.8588897,
    "lon": 2.3200410217200766,
    "day": 1667300400,
    "temp": 16.13
  },
  {
    "city": "Paris",
    "lat": 48.8588897,
    "lon": 2.3200410217200766,
    "day": 1667386800,
    "temp": 14.23
  },
  {
    "city": "Paris",
    "lat": 48.8588897,
    "lon": 2.3200410217200766,
    "day": 1667473200,
    "temp": 15.16
  },
  {
    "city": "Paris",
    "lat": 48.8588897,
    "lon": 2.3200410217200766,
    "day": 1667559600,
    "temp": 12.24
  },
  {
    "city": "Paris",
    "lat": 48.8588897,
    "lon": 2.3200410217200766,
    "day": 1667646000,
    "temp": 10.99
  },
  {
    "city": "Paris",
    "lat": 48.8588897,
    "lon": 2.3200410217200766,
    "day": 1667732400,
    "temp": 15.01
  },
  {
    "city": "Amiens",
    "lat": 49.8941708,
    "lon": 2.2956951,
    "day": 1667214000,
    "temp": 18.28
  },
  {
    "city": "Amiens",
    "lat": 49.8941708,
    "lon": 2.2956951,
    "day": 1667300400,
    "temp": 14.79
  },
  {
    "city": "Amiens",
    "lat": 49.8941708,
    "lon": 2.2956951,
    "day": 1667386800,
    "temp": 13.59
  },
  {
    "city": "Amiens",
    "lat": 49.8941708,
    "lon": 2.2956951,
    "day": 1667473200,
    "temp": 12.58
  },
  {
    "city": "Amiens",
    "lat": 49.8941708,
    "lon": 2.2956951,
    "day": 1667559600,
    "temp": 12.16
  },
  {
    "city": "Amiens",
    "lat": 49.8941708,
    "lon": 2.2956951,
    "day": 1667646000,
    "temp": 10.43
  },
  {
    "city": "Amiens",
    "lat": 49.8941708,
    "lon": 2.2956951,
    "day": 1667732400,
    "temp": 13.44
  },
  {
    "city": "Lille",
    "lat": 50.6365654,
    "lon": 3.0635282,
    "day": 1667214000,
    "temp": 17.44
  },
  {
    "city": "Lille",
    "lat": 50.6365654,
    "lon": 3.0635282,
    "day": 1667300400,
    "temp": 15.08
  },
  {
    "city": "Lille",
    "lat": 50.6365654,
    "lon": 3.0635282,
    "day": 1667386800,
    "temp": 13.55
  },
  {
    "city": "Lille",
    "lat": 50.6365654,
    "lon": 3.0635282,
    "day": 1667473200,
    "temp": 12.35
  },
  {
    "city": "Lille",
    "lat": 50.6365654,
    "lon": 3.0635282,
    "day": 1667559600,
    "temp": 10.49
  },
  {
    "city": "Lille",
    "lat": 50.6365654,
    "lon": 3.0635282,
    "day": 1667646000,
    "temp": 10.92
  },
  {
    "city": "Lille",
    "lat": 50.6365654,
    "lon": 3.0635282,
    "day": 1667732400,
    "temp": 11.96
  },
  {
    "city": "Strasbourg",
    "lat": 48.584614,
    "lon": 7.7507127,
    "day": 1667214000,
    "temp": 17.05
  },
  {
    "city": "Strasbourg",
    "lat": 48.584614,
    "lon": 7.7507127,
    "day": 1667300400,
    "temp": 16.17
  },
  {
    "city": "Strasbourg",
    "lat": 48.584614,
    "lon": 7.7507127,
    "day": 1667386800,
    "temp": 14.79
  },
  {
    "city": "Strasbourg",
    "lat": 48.584614,
    "lon": 7.7507127,
    "day": 1667473200,
    "temp": 13.69
  },
  {
    "city": "Strasbourg",
    "lat": 48.584614,
    "lon": 7.7507127,
    "day": 1667559600,
    "temp": 11.18
  },
  {
    "city": "Strasbourg",
    "lat": 48.584614,
    "lon": 7.7507127,
    "day": 1667646000,
    "temp": 9.16
  },
  {
    "city": "Strasbourg",
    "lat": 48.584614,
    "lon": 7.7507127,
    "day": 1667732400,
    "temp": 13.2
  },
  {
    "city": "Ch\\u00e2teau du Haut-K\\u0153nigsbourg",
    "lat": 48.249489800000006,
    "lon": 7.34429620253195,
    "day": 1667214000,
    "temp": 14.44
  },
  {
    "city": "Ch\\u00e2teau du Haut-K\\u0153nigsbourg",
    "lat": 48.249489800000006,
    "lon": 7.34429620253195,
    "day": 1667300400,
    "temp": 12.86
  },
  {
    "city": "Ch\\u00e2teau du Haut-K\\u0153nigsbourg",
    "lat": 48.249489800000006,
    "lon": 7.34429620253195,
    "day": 1667386800,
    "temp": 11.66
  },
  {
    "city": "Ch\\u00e2teau du Haut-K\\u0153nigsbourg",
    "lat": 48.249489800000006,
    "lon": 7.34429620253195,
    "day": 1667473200,
    "temp": 12.13
  },
  {
    "city": "Ch\\u00e2teau du Haut-K\\u0153nigsbourg",
    "lat": 48.249489800000006,
    "lon": 7.34429620253195,
    "day": 1667559600,
    "temp": 6.62
  },
  {
    "city": "Ch\\u00e2teau du Haut-K\\u0153nigsbourg",
    "lat": 48.249489800000006,
    "lon": 7.34429620253195,
    "day": 1667646000,
    "temp": 5.94
  },
  {
    "city": "Ch\\u00e2teau du Haut-K\\u0153nigsbourg",
    "lat": 48.249489800000006,
    "lon": 7.34429620253195,
    "day": 1667732400,
    "temp": 10.63
  },
  {
    "city": "Colmar",
    "lat": 48.0777517,
    "lon": 7.3579641,
    "day": 1667214000,
    "temp": 17.65
  },
  {
    "city": "Colmar",
    "lat": 48.0777517,
    "lon": 7.3579641,
    "day": 1667300400,
    "temp": 16.41
  },
  {
    "city": "Colmar",
    "lat": 48.0777517,
    "lon": 7.3579641,
    "day": 1667386800,
    "temp": 15.13
  },
  {
    "city": "Colmar",
    "lat": 48.0777517,
    "lon": 7.3579641,
    "day": 1667473200,
    "temp": 14.67
  },
  {
    "city": "Colmar",
    "lat": 48.0777517,
    "lon": 7.3579641,
    "day": 1667559600,
    "temp": 9.92
  },
  {
    "city": "Colmar",
    "lat": 48.0777517,
    "lon": 7.3579641,
    "day": 1667646000,
    "temp": 8.95
  },
  {
    "city": "Colmar",
    "lat": 48.0777517,
    "lon": 7.3579641,
    "day": 1667732400,
    "temp": 13.92
  },
  {
    "city": "Eguisheim",
    "lat": 48.0447968,
    "lon": 7.3079618,
    "day": 1667214000,
    "temp": 17.96
  },
  {
    "city": "Eguisheim",
    "lat": 48.0447968,
    "lon": 7.3079618,
    "day": 1667300400,
    "temp": 16.38
  },
  {
    "city": "Eguisheim",
    "lat": 48.0447968,
    "lon": 7.3079618,
    "day": 1667386800,
    "temp": 15.15
  },
  {
    "city": "Eguisheim",
    "lat": 48.0447968,
    "lon": 7.3079618,
    "day": 1667473200,
    "temp": 15.45
  },
  {
    "city": "Eguisheim",
    "lat": 48.0447968,
    "lon": 7.3079618,
    "day": 1667559600,
    "temp": 8.97
  },
  {
    "city": "Eguisheim",
    "lat": 48.0447968,
    "lon": 7.3079618,
    "day": 1667646000,
    "temp": 8.85
  },
  {
    "city": "Eguisheim",
    "lat": 48.0447968,
    "lon": 7.3079618,
    "day": 1667732400,
    "temp": 13.93
  },
  {
    "city": "Besan\\u00e7on",
    "lat": 47.2380222,
    "lon": 6.0243622,
    "day": 1667214000,
    "temp": 20.59
  },
  {
    "city": "Besan\\u00e7on",
    "lat": 47.2380222,
    "lon": 6.0243622,
    "day": 1667300400,
    "temp": 13.93
  },
  {
    "city": "Besan\\u00e7on",
    "lat": 47.2380222,
    "lon": 6.0243622,
    "day": 1667386800,
    "temp": 13.79
  },
  {
    "city": "Besan\\u00e7on",
    "lat": 47.2380222,
    "lon": 6.0243622,
    "day": 1667473200,
    "temp": 15.93
  },
  {
    "city": "Besan\\u00e7on",
    "lat": 47.2380222,
    "lon": 6.0243622,
    "day": 1667559600,
    "temp": 8.41
  },
  {
    "city": "Besan\\u00e7on",
    "lat": 47.2380222,
    "lon": 6.0243622,
    "day": 1667646000,
    "temp": 8.72
  },
  {
    "city": "Besan\\u00e7on",
    "lat": 47.2380222,
    "lon": 6.0243622,
    "day": 1667732400,
    "temp": 12.09
  },
  {
    "city": "Dijon",
    "lat": 47.3215806,
    "lon": 5.0414701,
    "day": 1667214000,
    "temp": 19.55
  },
  {
    "city": "Dijon",
    "lat": 47.3215806,
    "lon": 5.0414701,
    "day": 1667300400,
    "temp": 14.18
  },
  {
    "city": "Dijon",
    "lat": 47.3215806,
    "lon": 5.0414701,
    "day": 1667386800,
    "temp": 13.97
  },
  {
    "city": "Dijon",
    "lat": 47.3215806,
    "lon": 5.0414701,
    "day": 1667473200,
    "temp": 13.92
  },
  {
    "city": "Dijon",
    "lat": 47.3215806,
    "lon": 5.0414701,
    "day": 1667559600,
    "temp": 9.65
  },
  {
    "city": "Dijon",
    "lat": 47.3215806,
    "lon": 5.0414701,
    "day": 1667646000,
    "temp": 11.11
  },
  {
    "city": "Dijon",
    "lat": 47.3215806,
    "lon": 5.0414701,
    "day": 1667732400,
    "temp": 12.75
  },
  {
    "city": "Annecy",
    "lat": 45.8992348,
    "lon": 6.1288847,
    "day": 1667214000,
    "temp": 20.04
  },
  {
    "city": "Annecy",
    "lat": 45.8992348,
    "lon": 6.1288847,
    "day": 1667300400,
    "temp": 16.1
  },
  {
    "city": "Annecy",
    "lat": 45.8992348,
    "lon": 6.1288847,
    "day": 1667386800,
    "temp": 15.28
  },
  {
    "city": "Annecy",
    "lat": 45.8992348,
    "lon": 6.1288847,
    "day": 1667473200,
    "temp": 16.02
  },
  {
    "city": "Annecy",
    "lat": 45.8992348,
    "lon": 6.1288847,
    "day": 1667559600,
    "temp": 7.05
  },
  {
    "city": "Annecy",
    "lat": 45.8992348,
    "lon": 6.1288847,
    "day": 1667646000,
    "temp": 10.38
  },
  {
    "city": "Annecy",
    "lat": 45.8992348,
    "lon": 6.1288847,
    "day": 1667732400,
    "temp": 16.68
  },
  {
    "city": "Grenoble",
    "lat": 45.1875602,
    "lon": 5.7357819,
    "day": 1667214000,
    "temp": 23.79
  },
  {
    "city": "Grenoble",
    "lat": 45.1875602,
    "lon": 5.7357819,
    "day": 1667300400,
    "temp": 18.01
  },
  {
    "city": "Grenoble",
    "lat": 45.1875602,
    "lon": 5.7357819,
    "day": 1667386800,
    "temp": 16.42
  },
  {
    "city": "Grenoble",
    "lat": 45.1875602,
    "lon": 5.7357819,
    "day": 1667473200,
    "temp": 17.82
  },
  {
    "city": "Grenoble",
    "lat": 45.1875602,
    "lon": 5.7357819,
    "day": 1667559600,
    "temp": 9.01
  },
  {
    "city": "Grenoble",
    "lat": 45.1875602,
    "lon": 5.7357819,
    "day": 1667646000,
    "temp": 12.34
  },
  {
    "city": "Grenoble",
    "lat": 45.1875602,
    "lon": 5.7357819,
    "day": 1667732400,
    "temp": 20.3
  },
  {
    "city": "Lyon",
    "lat": 45.7578137,
    "lon": 4.8320114,
    "day": 1667214000,
    "temp": 22.77
  },
  {
    "city": "Lyon",
    "lat": 45.7578137,
    "lon": 4.8320114,
    "day": 1667300400,
    "temp": 16.17
  },
  {
    "city": "Lyon",
    "lat": 45.7578137,
    "lon": 4.8320114,
    "day": 1667386800,
    "temp": 16.38
  },
  {
    "city": "Lyon",
    "lat": 45.7578137,
    "lon": 4.8320114,
    "day": 1667473200,
    "temp": 18.04
  },
  {
    "city": "Lyon",
    "lat": 45.7578137,
    "lon": 4.8320114,
    "day": 1667559600,
    "temp": 12.17
  },
  {
    "city": "Lyon",
    "lat": 45.7578137,
    "lon": 4.8320114,
    "day": 1667646000,
    "temp": 13.41
  },
  {
    "city": "Lyon",
    "lat": 45.7578137,
    "lon": 4.8320114,
    "day": 1667732400,
    "temp": 14.26
  },
  {
    "city": "Gorges du Verdon",
    "lat": 43.7496562,
    "lon": 6.3285616,
    "day": 1667214000,
    "temp": 19.14
  },
  {
    "city": "Gorges du Verdon",
    "lat": 43.7496562,
    "lon": 6.3285616,
    "day": 1667300400,
    "temp": 13.44
  },
  {
    "city": "Gorges du Verdon",
    "lat": 43.7496562,
    "lon": 6.3285616,
    "day": 1667386800,
    "temp": 16.22
  },
  {
    "city": "Gorges du Verdon",
    "lat": 43.7496562,
    "lon": 6.3285616,
    "day": 1667473200,
    "temp": 12.35
  },
  {
    "city": "Gorges du Verdon",
    "lat": 43.7496562,
    "lon": 6.3285616,
    "day": 1667559600,
    "temp": 10.04
  },
  {
    "city": "Gorges du Verdon",
    "lat": 43.7496562,
    "lon": 6.3285616,
    "day": 1667646000,
    "temp": 11.26
  },
  {
    "city": "Gorges du Verdon",
    "lat": 43.7496562,
    "lon": 6.3285616,
    "day": 1667732400,
    "temp": 15.61
  },
  {
    "city": "Bormes-les-Mimosas",
    "lat": 43.1506968,
    "lon": 6.3419285,
    "day": 1667214000,
    "temp": 21.48
  },
  {
    "city": "Bormes-les-Mimosas",
    "lat": 43.1506968,
    "lon": 6.3419285,
    "day": 1667300400,
    "temp": 20.4
  },
  {
    "city": "Bormes-les-Mimosas",
    "lat": 43.1506968,
    "lon": 6.3419285,
    "day": 1667386800,
    "temp": 19.82
  },
  {
    "city": "Bormes-les-Mimosas",
    "lat": 43.1506968,
    "lon": 6.3419285,
    "day": 1667473200,
    "temp": 18.34
  },
  {
    "city": "Bormes-les-Mimosas",
    "lat": 43.1506968,
    "lon": 6.3419285,
    "day": 1667559600,
    "temp": 16.44
  },
  {
    "city": "Bormes-les-Mimosas",
    "lat": 43.1506968,
    "lon": 6.3419285,
    "day": 1667646000,
    "temp": 17.12
  },
  {
    "city": "Bormes-les-Mimosas",
    "lat": 43.1506968,
    "lon": 6.3419285,
    "day": 1667732400,
    "temp": 18.08
  },
  {
    "city": "Cassis",
    "lat": 43.2140359,
    "lon": 5.5396318,
    "day": 1667214000,
    "temp": 22.01
  },
  {
    "city": "Cassis",
    "lat": 43.2140359,
    "lon": 5.5396318,
    "day": 1667300400,
    "temp": 21.53
  },
  {
    "city": "Cassis",
    "lat": 43.2140359,
    "lon": 5.5396318,
    "day": 1667386800,
    "temp": 20.17
  },
  {
    "city": "Cassis",
    "lat": 43.2140359,
    "lon": 5.5396318,
    "day": 1667473200,
    "temp": 18.83
  },
  {
    "city": "Cassis",
    "lat": 43.2140359,
    "lon": 5.5396318,
    "day": 1667559600,
    "temp": 16.34
  },
  {
    "city": "Cassis",
    "lat": 43.2140359,
    "lon": 5.5396318,
    "day": 1667646000,
    "temp": 16.08
  },
  {
    "city": "Cassis",
    "lat": 43.2140359,
    "lon": 5.5396318,
    "day": 1667732400,
    "temp": 18.04
  },
  {
    "city": "Marseille",
    "lat": 43.2961743,
    "lon": 5.3699525,
    "day": 1667214000,
    "temp": 21.93
  },
  {
    "city": "Marseille",
    "lat": 43.2961743,
    "lon": 5.3699525,
    "day": 1667300400,
    "temp": 21.06
  },
  {
    "city": "Marseille",
    "lat": 43.2961743,
    "lon": 5.3699525,
    "day": 1667386800,
    "temp": 19.45
  },
  {
    "city": "Marseille",
    "lat": 43.2961743,
    "lon": 5.3699525,
    "day": 1667473200,
    "temp": 19.05
  },
  {
    "city": "Marseille",
    "lat": 43.2961743,
    "lon": 5.3699525,
    "day": 1667559600,
    "temp": 16.48
  },
  {
    "city": "Marseille",
    "lat": 43.2961743,
    "lon": 5.3699525,
    "day": 1667646000,
    "temp": 16.06
  },
  {
    "city": "Marseille",
    "lat": 43.2961743,
    "lon": 5.3699525,
    "day": 1667732400,
    "temp": 17.95
  },
  {
    "city": "Aix-en-Provence",
    "lat": 43.5298424,
    "lon": 5.4474738,
    "day": 1667214000,
    "temp": 22.58
  },
  {
    "city": "Aix-en-Provence",
    "lat": 43.5298424,
    "lon": 5.4474738,
    "day": 1667300400,
    "temp": 17.89
  },
  {
    "city": "Aix-en-Provence",
    "lat": 43.5298424,
    "lon": 5.4474738,
    "day": 1667386800,
    "temp": 18.53
  },
  {
    "city": "Aix-en-Provence",
    "lat": 43.5298424,
    "lon": 5.4474738,
    "day": 1667473200,
    "temp": 17.87
  },
  {
    "city": "Aix-en-Provence",
    "lat": 43.5298424,
    "lon": 5.4474738,
    "day": 1667559600,
    "temp": 14.57
  },
  {
    "city": "Aix-en-Provence",
    "lat": 43.5298424,
    "lon": 5.4474738,
    "day": 1667646000,
    "temp": 14.95
  },
  {
    "city": "Aix-en-Provence",
    "lat": 43.5298424,
    "lon": 5.4474738,
    "day": 1667732400,
    "temp": 18.14
  },
  {
    "city": "Avignon",
    "lat": 43.9492493,
    "lon": 4.8059012,
    "day": 1667214000,
    "temp": 23.24
  },
  {
    "city": "Avignon",
    "lat": 43.9492493,
    "lon": 4.8059012,
    "day": 1667300400,
    "temp": 18.12
  },
  {
    "city": "Avignon",
    "lat": 43.9492493,
    "lon": 4.8059012,
    "day": 1667386800,
    "temp": 18.32
  },
  {
    "city": "Avignon",
    "lat": 43.9492493,
    "lon": 4.8059012,
    "day": 1667473200,
    "temp": 15.16
  },
  {
    "city": "Avignon",
    "lat": 43.9492493,
    "lon": 4.8059012,
    "day": 1667559600,
    "temp": 15.92
  },
  {
    "city": "Avignon",
    "lat": 43.9492493,
    "lon": 4.8059012,
    "day": 1667646000,
    "temp": 15.61
  },
  {
    "city": "Avignon",
    "lat": 43.9492493,
    "lon": 4.8059012,
    "day": 1667732400,
    "temp": 18.38
  },
  {
    "city": "Uz\\u00e8s",
    "lat": 44.0121279,
    "lon": 4.4196718,
    "day": 1667214000,
    "temp": 21.58
  },
  {
    "city": "Uz\\u00e8s",
    "lat": 44.0121279,
    "lon": 4.4196718,
    "day": 1667300400,
    "temp": 17.84
  },
  {
    "city": "Uz\\u00e8s",
    "lat": 44.0121279,
    "lon": 4.4196718,
    "day": 1667386800,
    "temp": 18.47
  },
  {
    "city": "Uz\\u00e8s",
    "lat": 44.0121279,
    "lon": 4.4196718,
    "day": 1667473200,
    "temp": 12.45
  },
  {
    "city": "Uz\\u00e8s",
    "lat": 44.0121279,
    "lon": 4.4196718,
    "day": 1667559600,
    "temp": 15.68
  },
  {
    "city": "Uz\\u00e8s",
    "lat": 44.0121279,
    "lon": 4.4196718,
    "day": 1667646000,
    "temp": 15.96
  },
  {
    "city": "Uz\\u00e8s",
    "lat": 44.0121279,
    "lon": 4.4196718,
    "day": 1667732400,
    "temp": 16.98
  },
  {
    "city": "N\\u00eemes",
    "lat": 43.8374249,
    "lon": 4.3600687,
    "day": 1667214000,
    "temp": 22.36
  },
  {
    "city": "N\\u00eemes",
    "lat": 43.8374249,
    "lon": 4.3600687,
    "day": 1667300400,
    "temp": 18.62
  },
  {
    "city": "N\\u00eemes",
    "lat": 43.8374249,
    "lon": 4.3600687,
    "day": 1667386800,
    "temp": 19.19
  },
  {
    "city": "N\\u00eemes",
    "lat": 43.8374249,
    "lon": 4.3600687,
    "day": 1667473200,
    "temp": 15.15
  },
  {
    "city": "N\\u00eemes",
    "lat": 43.8374249,
    "lon": 4.3600687,
    "day": 1667559600,
    "temp": 15.44
  },
  {
    "city": "N\\u00eemes",
    "lat": 43.8374249,
    "lon": 4.3600687,
    "day": 1667646000,
    "temp": 16.79
  },
  {
    "city": "N\\u00eemes",
    "lat": 43.8374249,
    "lon": 4.3600687,
    "day": 1667732400,
    "temp": 17.88
  },
  {
    "city": "Aigues-Mortes",
    "lat": 43.5658225,
    "lon": 4.1912837,
    "day": 1667214000,
    "temp": 22.02
  },
  {
    "city": "Aigues-Mortes",
    "lat": 43.5658225,
    "lon": 4.1912837,
    "day": 1667300400,
    "temp": 19.54
  },
  {
    "city": "Aigues-Mortes",
    "lat": 43.5658225,
    "lon": 4.1912837,
    "day": 1667386800,
    "temp": 19.25
  },
  {
    "city": "Aigues-Mortes",
    "lat": 43.5658225,
    "lon": 4.1912837,
    "day": 1667473200,
    "temp": 19.15
  },
  {
    "city": "Aigues-Mortes",
    "lat": 43.5658225,
    "lon": 4.1912837,
    "day": 1667559600,
    "temp": 16.94
  },
  {
    "city": "Aigues-Mortes",
    "lat": 43.5658225,
    "lon": 4.1912837,
    "day": 1667646000,
    "temp": 17.06
  },
  {
    "city": "Aigues-Mortes",
    "lat": 43.5658225,
    "lon": 4.1912837,
    "day": 1667732400,
    "temp": 17.53
  },
  {
    "city": "Saintes-Maries-de-la-Mer",
    "lat": 43.4522771,
    "lon": 4.4287172,
    "day": 1667214000,
    "temp": 21.87
  },
  {
    "city": "Saintes-Maries-de-la-Mer",
    "lat": 43.4522771,
    "lon": 4.4287172,
    "day": 1667300400,
    "temp": 19.69
  },
  {
    "city": "Saintes-Maries-de-la-Mer",
    "lat": 43.4522771,
    "lon": 4.4287172,
    "day": 1667386800,
    "temp": 19.12
  },
  {
    "city": "Saintes-Maries-de-la-Mer",
    "lat": 43.4522771,
    "lon": 4.4287172,
    "day": 1667473200,
    "temp": 19.39
  },
  {
    "city": "Saintes-Maries-de-la-Mer",
    "lat": 43.4522771,
    "lon": 4.4287172,
    "day": 1667559600,
    "temp": 16.28
  },
  {
    "city": "Saintes-Maries-de-la-Mer",
    "lat": 43.4522771,
    "lon": 4.4287172,
    "day": 1667646000,
    "temp": 16.89
  },
  {
    "city": "Saintes-Maries-de-la-Mer",
    "lat": 43.4522771,
    "lon": 4.4287172,
    "day": 1667732400,
    "temp": 17.66
  },
  {
    "city": "Collioure",
    "lat": 42.52505,
    "lon": 3.0831554,
    "day": 1667214000,
    "temp": 22.94
  },
  {
    "city": "Collioure",
    "lat": 42.52505,
    "lon": 3.0831554,
    "day": 1667300400,
    "temp": 19.54
  },
  {
    "city": "Collioure",
    "lat": 42.52505,
    "lon": 3.0831554,
    "day": 1667386800,
    "temp": 19.51
  },
  {
    "city": "Collioure",
    "lat": 42.52505,
    "lon": 3.0831554,
    "day": 1667473200,
    "temp": 20.62
  },
  {
    "city": "Collioure",
    "lat": 42.52505,
    "lon": 3.0831554,
    "day": 1667559600,
    "temp": 17.97
  },
  {
    "city": "Collioure",
    "lat": 42.52505,
    "lon": 3.0831554,
    "day": 1667646000,
    "temp": 18.61
  },
  {
    "city": "Collioure",
    "lat": 42.52505,
    "lon": 3.0831554,
    "day": 1667732400,
    "temp": 19.61
  },
  {
    "city": "Carcassonne",
    "lat": 43.2130358,
    "lon": 2.3491069,
    "day": 1667214000,
    "temp": 22.34
  },
  {
    "city": "Carcassonne",
    "lat": 43.2130358,
    "lon": 2.3491069,
    "day": 1667300400,
    "temp": 19.72
  },
  {
    "city": "Carcassonne",
    "lat": 43.2130358,
    "lon": 2.3491069,
    "day": 1667386800,
    "temp": 19.71
  },
  {
    "city": "Carcassonne",
    "lat": 43.2130358,
    "lon": 2.3491069,
    "day": 1667473200,
    "temp": 16.85
  },
  {
    "city": "Carcassonne",
    "lat": 43.2130358,
    "lon": 2.3491069,
    "day": 1667559600,
    "temp": 13.06
  },
  {
    "city": "Carcassonne",
    "lat": 43.2130358,
    "lon": 2.3491069,
    "day": 1667646000,
    "temp": 16.84
  },
  {
    "city": "Carcassonne",
    "lat": 43.2130358,
    "lon": 2.3491069,
    "day": 1667732400,
    "temp": 21.46
  },
  {
    "city": "Ari\\u00e8ge",
    "lat": 42.9455368,
    "lon": 1.4065544156065486,
    "day": 1667214000,
    "temp": 19.58
  },
  {
    "city": "Ari\\u00e8ge",
    "lat": 42.9455368,
    "lon": 1.4065544156065486,
    "day": 1667300400,
    "temp": 12.6
  },
  {
    "city": "Ari\\u00e8ge",
    "lat": 42.9455368,
    "lon": 1.4065544156065486,
    "day": 1667386800,
    "temp": 12.72
  },
  {
    "city": "Ari\\u00e8ge",
    "lat": 42.9455368,
    "lon": 1.4065544156065486,
    "day": 1667473200,
    "temp": 15.66
  },
  {
    "city": "Ari\\u00e8ge",
    "lat": 42.9455368,
    "lon": 1.4065544156065486,
    "day": 1667559600,
    "temp": 6.01
  },
  {
    "city": "Ari\\u00e8ge",
    "lat": 42.9455368,
    "lon": 1.4065544156065486,
    "day": 1667646000,
    "temp": 11.47
  },
  {
    "city": "Ari\\u00e8ge",
    "lat": 42.9455368,
    "lon": 1.4065544156065486,
    "day": 1667732400,
    "temp": 16.59
  },
  {
    "city": "Toulouse",
    "lat": 43.6044622,
    "lon": 1.4442469,
    "day": 1667214000,
    "temp": 23.32
  },
  {
    "city": "Toulouse",
    "lat": 43.6044622,
    "lon": 1.4442469,
    "day": 1667300400,
    "temp": 18.08
  },
  {
    "city": "Toulouse",
    "lat": 43.6044622,
    "lon": 1.4442469,
    "day": 1667386800,
    "temp": 17.78
  },
  {
    "city": "Toulouse",
    "lat": 43.6044622,
    "lon": 1.4442469,
    "day": 1667473200,
    "temp": 19.64
  },
  {
    "city": "Toulouse",
    "lat": 43.6044622,
    "lon": 1.4442469,
    "day": 1667559600,
    "temp": 15.05
  },
  {
    "city": "Toulouse",
    "lat": 43.6044622,
    "lon": 1.4442469,
    "day": 1667646000,
    "temp": 16.3
  },
  {
    "city": "Toulouse",
    "lat": 43.6044622,
    "lon": 1.4442469,
    "day": 1667732400,
    "temp": 20.91
  },
  {
    "city": "Montauban",
    "lat": 44.0175835,
    "lon": 1.3549991,
    "day": 1667214000,
    "temp": 22.51
  },
  {
    "city": "Montauban",
    "lat": 44.0175835,
    "lon": 1.3549991,
    "day": 1667300400,
    "temp": 17.59
  },
  {
    "city": "Montauban",
    "lat": 44.0175835,
    "lon": 1.3549991,
    "day": 1667386800,
    "temp": 17.5
  },
  {
    "city": "Montauban",
    "lat": 44.0175835,
    "lon": 1.3549991,
    "day": 1667473200,
    "temp": 18.19
  },
  {
    "city": "Montauban",
    "lat": 44.0175835,
    "lon": 1.3549991,
    "day": 1667559600,
    "temp": 14.71
  },
  {
    "city": "Montauban",
    "lat": 44.0175835,
    "lon": 1.3549991,
    "day": 1667646000,
    "temp": 16.2
  },
  {
    "city": "Montauban",
    "lat": 44.0175835,
    "lon": 1.3549991,
    "day": 1667732400,
    "temp": 18.23
  },
  {
    "city": "Biarritz",
    "lat": 43.471143749999996,
    "lon": -1.552726590666314,
    "day": 1667214000,
    "temp": 18.36
  },
  {
    "city": "Biarritz",
    "lat": 43.471143749999996,
    "lon": -1.552726590666314,
    "day": 1667300400,
    "temp": 17.27
  },
  {
    "city": "Biarritz",
    "lat": 43.471143749999996,
    "lon": -1.552726590666314,
    "day": 1667386800,
    "temp": 17.59
  },
  {
    "city": "Biarritz",
    "lat": 43.471143749999996,
    "lon": -1.552726590666314,
    "day": 1667473200,
    "temp": 18.51
  },
  {
    "city": "Biarritz",
    "lat": 43.471143749999996,
    "lon": -1.552726590666314,
    "day": 1667559600,
    "temp": 14.48
  },
  {
    "city": "Biarritz",
    "lat": 43.471143749999996,
    "lon": -1.552726590666314,
    "day": 1667646000,
    "temp": 18.09
  },
  {
    "city": "Biarritz",
    "lat": 43.471143749999996,
    "lon": -1.552726590666314,
    "day": 1667732400,
    "temp": 17.52
  },
  {
    "city": "Bayonne",
    "lat": 43.4945144,
    "lon": -1.4736657,
    "day": 1667214000,
    "temp": 18.79
  },
  {
    "city": "Bayonne",
    "lat": 43.4945144,
    "lon": -1.4736657,
    "day": 1667300400,
    "temp": 17.9
  },
  {
    "city": "Bayonne",
    "lat": 43.4945144,
    "lon": -1.4736657,
    "day": 1667386800,
    "temp": 18.15
  },
  {
    "city": "Bayonne",
    "lat": 43.4945144,
    "lon": -1.4736657,
    "day": 1667473200,
    "temp": 18.75
  },
  {
    "city": "Bayonne",
    "lat": 43.4945144,
    "lon": -1.4736657,
    "day": 1667559600,
    "temp": 14.98
  },
  {
    "city": "Bayonne",
    "lat": 43.4945144,
    "lon": -1.4736657,
    "day": 1667646000,
    "temp": 18.86
  },
  {
    "city": "Bayonne",
    "lat": 43.4945144,
    "lon": -1.4736657,
    "day": 1667732400,
    "temp": 18.12
  },
  {
    "city": "La Rochelle",
    "lat": 46.1591126,
    "lon": -1.1520434,
    "day": 1667214000,
    "temp": 19.63
  },
  {
    "city": "La Rochelle",
    "lat": 46.1591126,
    "lon": -1.1520434,
    "day": 1667300400,
    "temp": 17.01
  },
  {
    "city": "La Rochelle",
    "lat": 46.1591126,
    "lon": -1.1520434,
    "day": 1667386800,
    "temp": 16.1
  },
  {
    "city": "La Rochelle",
    "lat": 46.1591126,
    "lon": -1.1520434,
    "day": 1667473200,
    "temp": 16.81
  },
  {
    "city": "La Rochelle",
    "lat": 46.1591126,
    "lon": -1.1520434,
    "day": 1667559600,
    "temp": 14.97
  },
  {
    "city": "La Rochelle",
    "lat": 46.1591126,
    "lon": -1.1520434,
    "day": 1667646000,
    "temp": 16.05
  },
  {
    "city": "La Rochelle",
    "lat": 46.1591126,
    "lon": -1.1520434,
    "day": 1667732400,
    "temp": 17.23
  }
]